Timestamp_ms,Raw_Accel_X,Raw_Accel_Y,Raw_Accel_Z,Unbiased_Filt_Accel_X,Unbiased_Filt_Accel_Y,Raw_Omega_Z_degs,Unbiased_Omega_Z_rads,IMU_Roll_deg,IMU_Pitch_deg,IMU_Yaw_deg,GPS_Lat,GPS_Lon,GPS_GroundSpeed_kmh,GPS_Satellites,GPS_HDOP,GPS_Local_X_m,GPS_Local_Y_m,R_delta_pos_X,R_delta_pos_Y,Q_av,Q_q,Q_ba,Q_bg,ZUPT_Actived,EKF_Status,Delta_T_s
9110,0.0048,0.0335,9.7187,0,0,0,0,0,0,-59.87,22.3761292,120.159729,0,12,3.4,0,0,100,100,0.000027,0,0,0,0,3,0.011
9153,0,-0.0144,9.7713,0,0,0,0,0,0,-59.87,22.376133,120.1596909,0,13,2.7,0,0,100,100,0.000027,0,0,0,0,3,0.011
9188,-0.0191,-0.0574,9.8383,0,0,0,0,0,0,-59.87,22.376133,120.1596909,0,13,2.7,0,0,100,100,0.000027,0,0,0,0,3,0.011
9223,0.0144,-0.0048,9.8048,0,0,0,0,0,0,-59.87,22.376133,120.1596909,0,13,2.7,0,0,100,100,0.000027,0,0,0,0,3,0.011
9257,0.0048,0.0574,9.7187,0,0,0,0,0,0,-59.87,22.376133,120.1596909,0,13,2.7,0,0,100,100,0.000027,0,0,0,0,3,0.011
9292,-0.0144,-0.0239,9.7713,0,0,0,0,0,0,-59.87,22.376133,120.1596909,0,13,2.7,0,0,100,100,0.000027,0,0,0,0,3,0.011
9327,-0.0144,-0.0431,9.8048,0,0,0,0,0,0,-59.87,22.376133,120.1596909,0,13,2.7,0,0,100,100,0.000027,0,0,0,0,3,0.011
9369,-0.0239,0.0287,9.7378,0,0,0,0,0,0,-59.87,22.376133,120.1596832,0.01,15,2.3,0,0,100,100,0.000027,0,0,0,0,3,0.011
9404,-0.0239,-0.0526,9.8431,0,0,0,0,0,0,-59.87,22.376133,120.1596832,0.01,15,2.3,0,0,100,100,0.000027,0,0,0,0,3,0.011
9439,0.0287,-0.0239,9.8526,0,0,0,0,0,0,-59.87,22.376133,120.1596832,0.01,15,2.3,0,0,100,100,0.000027,0,0,0,0,3,0.011
9473,0,0.0383,9.7139,0,0,0,0,0,0,-59.87,22.376133,120.1596832,0.01,15,2.3,0,0,100,100,0.000027,0,0,0,0,3,0.011
9508,-0.0144,-0.0144,9.7521,0,0,0,0,0,0,-59.87,22.376133,120.1596832,0.01,15,2.3,0,0,100,100,0.000027,0,0,0,0,3,0.011
9543,-0.0239,-0.0239,9.8144,0,0,0,0,0,0,-59.87,22.376133,120.1596832,0.01,15,2.3,0,0,100,100,0.000027,0,0,0,0,3,0.011
9585,-0.0191,-0.0048,9.7569,0,0,0,0,0,0,-59.87,22.376133,120.1596832,0.01,15,2.3,0,0,100,100,0.000027,0,0,0,0,3,0.011
9620,0,-0.0335,9.8144,0,0,0,0,0,0,-59.87,22.376133,120.1596832,0.01,15,2.3,0,0,100,100,0.000027,0,0,0,0,3,0.011
9654,-0.0096,0.0096,9.8096,0,0,0,0,0,0,-59.87,22.376133,120.1596832,0.01,15,2.3,0,0,100,100,0.000027,0,0,0,0,3,0.011
9689,0,0.0383,9.7426,0,0,0,0,0,0,-59.87,22.376133,120.1596832,0.01,15,2.3,0,0,100,100,0.000027,0,0,0,0,3,0.011
9723,-0.0239,-0.0096,9.7761,0,0,0,0,0,0,-59.87,22.376133,120.1596832,0.01,15,2.3,0,0,100,100,0.000027,0,0,0,0,3,0.011
9757,-0.0096,-0.0287,9.8048,0,0,0,0,0,0,-59.87,22.376133,120.1596832,0.01,15,2.3,0,0,100,100,0.000027,0,0,0,0,3,0.011
9799,0.0287,0.0048,9.8048,0,0,0,0,0,0,-59.87,22.3761349,120.1596832,0.01,15,2.3,0,0,100,100,0.000027,0,0,0,0,3,0.011
9833,0.0048,-0.0335,9.8239,0,0,0,0,0,0,-59.87,22.3761349,120.1596832,0.01,15,2.3,0,0,100,100,0.000027,0,0,0,0,3,0.011
9867,0.0287,0.0144,9.7904,0,0,0,0,0,0,-59.87,22.3761349,120.1596832,0.01,15,2.3,0,0,100,100,0.000027,0,0,0,0,3,0.011
9890,0,0.0191,9.7521,0,0,0,0,0,0,-59.87,22.3761349,120.1596832,0.01,15,2.3,0,0,100,100,0.000027,0,0,0,0,3,0.011
9924,-0.0287,-0.0431,9.8574,0,0,0,0,0,0,-59.87,22.3761349,120.1596832,0.01,15,2.3,0,0,100,100,0.000027,0,0,0,0,3,0.011
9947,-0.0287,-0.0383,9.7761,0,0,0,0,0,0,-59.87,22.3761349,120.1596832,0.01,15,2.3,0,0,100,100,0.000027,0,0,0,0,3,0.011
9981,0.0096,-0.0287,9.8383,0,0,0,0,0,0,-59.87,22.3761349,120.1596832,0.01,15,2.3,0,0,100,100,0.000027,0,0,0,0,3,0.011
10012,-0.0191,-0.0239,9.8048,0,0,0,0,0,0,-59.87,22.3761349,120.1596832,0.01,15,2.3,0,0,100,100,0.000027,0,0,0,0,3,0.011
10033,0.0239,-0.0191,9.8431,0,0,0,0,0,0,-59.87,22.3761349,120.1596832,0.01,15,2.3,0,0,100,100,0.000027,0,0,0,0,3,0.011
10055,0.0191,-0.0383,9.8048,0,0,0,0,0,0,-59.87,22.3761349,120.1596832,0.01,15,2.3,0,0,100,100,0.000027,0,0,0,0,3,0.011
10087,-0.0096,-0.0383,9.7952,0,0,0,0,0,0,-59.87,22.3761349,120.1596832,0.01,15,2.3,0,0,100,100,0.000027,0,0,0,0,3,0.011
10108,0.0048,0,9.8335,0,0,0,0,0,0,-59.87,22.3761349,120.1596832,0.01,15,2.3,0,0,100,100,0.000027,0,0,0,0,3,0.011
10130,0.0191,-0.0144,9.8383,0,0,0,0,0,0,-59.87,22.3761349,120.1596832,0.01,15,2.3,0,0,100,100,0.000027,0,0,0,0,3,0.011
10162,-0.0096,-0.0431,9.8048,0,0,0,0,0,0,-59.87,22.3761349,120.1596832,0.01,15,2.3,0,0,100,100,0.000027,0,0,0,0,3,0.011
10183,0.0096,0.0191,9.8,0,0,0,0,0,0,-59.87,22.3761349,120.1596832,0.01,15,2.3,0,0,100,100,0.000027,0,0,0,0,3,0.011
10213,-0.0048,-0.0431,9.8526,0,0,0,0,0,0,-59.87,22.3761349,120.1596832,0.01,15,2.3,0,0,100,100,0.000027,0,0,0,0,3,0.011
10235,0,-0.0622,9.8239,0,0,0,0,0,0,-59.87,22.3761349,120.1596832,0.01,15,2.3,0,0,100,100,0.000027,0,0,0,0,3,0.011
10256,-0.0287,0.0048,9.7856,0,0,0,0,0,0,-59.87,22.3761349,120.1596832,0.01,15,2.3,0,0,100,100,0.000027,0,0,0,0,3,0.011
10288,-0.0048,-0.0574,9.8574,0,0,0,0,0,0,-59.87,22.3761349,120.1596832,0.01,15,2.3,0,0,100,100,0.000027,0,0,0,0,3,0.011
10309,0,-0.0574,9.8383,0,0,0,0,0,0,-59.87,22.3761349,120.1596832,0.01,15,2.3,0,0,100,100,0.000027,0,0,0,0,3,0.011
10331,0.0096,0.0191,9.7809,0,0,0,0,0,0,-59.87,22.3761349,120.1596832,0.01,15,2.3,0,0,100,100,0.000027,0,0,0,0,3,0.011
10363,0,-0.0287,9.8239,0,0,0,0,0,0,-59.87,22.3761349,120.1596832,0.01,15,2.3,0,0,100,100,0.000027,0,0,0,0,3,0.011
10385,-0.0144,-0.0239,9.8,0,0,0,0,0,0,-59.87,22.3761349,120.1596832,0.01,15,2.3,0,0,100,100,0.000027,0,0,0,0,3,0.011
10414,-0.0239,-0.0096,9.7474,0,0,0,0,0,0,-59.87,22.3761349,120.1596832,0.01,15,2.3,0,0,100,100,0.000027,0,0,0,0,3,0.011
10436,0.0048,-0.0622,9.8479,0,0,0,0,0,0,-59.87,22.3761349,120.1596832,0.01,15,2.3,0,0,100,100,0.000027,0,0,0,0,3,0.011
10457,-0.0239,-0.0479,9.8383,0,0,0,0,0,0,-59.87,22.3761349,120.1596832,0.01,15,2.3,0,0,100,100,0.000027,0,0,0,0,3,0.011
10489,0,-0.0239,9.7617,0,0,0,0,0,0,-59.87,22.3761349,120.1596832,0.01,15,2.3,0,0,100,100,0.000027,0,0,0,0,3,0.011
10511,-0.0096,-0.0526,9.8239,0,0,0,0,0,0,-59.87,22.3761349,120.1596832,0.01,15,2.3,0,0,100,100,0.000027,0,0,0,0,3,0.011
10532,0,-0.0574,9.8383,0,0,0,0,0,0,-59.87,22.3761349,120.1596832,0.01,15,2.3,0,0,100,100,0.000027,0,0,0,0,3,0.011
10564,0,-0.0431,9.8335,0,0,0,0,0,0,-59.87,22.3761349,120.1596832,0.01,15,2.3,0,0,100,100,0.000027,0,0,0,0,3,0.011
10586,0,-0.0191,9.8287,0,0,0,0,0,0,-59.87,22.3761349,120.1596832,0.01,15,2.3,0,0,100,100,0.000027,0,0,0,0,3,0.011
10615,-0.0239,-0.0574,9.8335,0,0,0,0,0,0,-59.87,22.3761349,120.1596832,0.01,15,2.3,0,0,100,100,0.000027,0,0,0,0,3,0.011
10637,-0.0144,-0.0526,9.7809,0,0,0,0,0,0,-59.87,22.3761349,120.1596832,0.01,15,2.3,0,0,100,100,0.000027,0,0,0,0,3,0.011
10659,-0.0096,-0.0239,9.7521,0,0,0,0,0,0,-59.87,22.3761349,120.1596832,0.01,15,2.3,0,0,100,100,0.000027,0,0,0,0,3,0.011
10690,0,-0.0191,9.8144,0,0,0,0,0,0,-59.87,22.3761349,120.1596832,0.01,15,2.3,0,0,100,100,0.000027,0,0,0,0,3,0.011
10712,-0.0048,-0.0048,9.7761,0,0,0,0,0,0,-59.87,22.3761349,120.1596832,0.01,15,2.3,0,0,100,100,0.000027,0,0,0,0,3,0.011
10734,0.0144,0.0335,9.7617,0,0,0,0,0,0,-59.87,22.3761349,120.1596832,0.01,15,2.3,0,0,100,100,0.000027,0,0,0,0,3,0.011
10765,0,-0.0526,9.8431,0,0,0,0,0,0,-59.87,22.3761349,120.1596832,0.01,15,2.3,0,0,100,100,0.000027,0,0,0,0,3,0.011
10787,-0.0239,-0.0191,9.8096,0,0,0,0,0,0,-59.87,22.3761349,120.1596832,0.01,15,2.3,0,0,100,100,0.000027,0,0,0,0,3,0.011
10817,0,0.0287,9.7234,0,0,0,0,0,0,-59.87,22.3761349,120.1596832,0.02,15,2.3,0,0,100,100,0.000027,0,0,0,0,3,0.011
10838,0.0239,0.0383,9.7234,0,0,0,0,0,0,-59.87,22.3761349,120.1596832,0.02,15,2.3,0,0,100,100,0.000027,0,0,0,0,3,0.011
10860,-0.0239,-0.0622,9.7856,0,0,0,0,0,0,-59.87,22.3761349,120.1596832,0.02,15,2.3,0,0,100,100,0.000027,0,0,0,0,3,0.011
10892,0,0.0191,9.7521,0,0,0,0,0,0,-59.87,22.3761349,120.1596832,0.02,15,2.3,0,0,100,100,0.000027,0,0,0,0,3,0.011
10913,-0.0191,-0.0096,9.8048,0,0,0,0,0,0,-59.87,22.3761349,120.1596832,0.02,15,2.3,0,0,100,100,0.000027,0,0,0,0,3,0.011
10935,-0.0335,-0.0287,9.8048,0,0,0,0,0,0,-59.87,22.3761349,120.1596832,0.02,15,2.3,0,0,100,100,0.000027,0,0,0,0,3,0.011
10967,-0.0048,0.0096,9.7713,0,0,0,0,0,0,-59.87,22.3761349,120.1596832,0.02,15,2.3,0,0,100,100,0.000027,0,0,0,0,3,0.011
10988,-0.0048,-0.0431,9.8526,0,0,0,0,0,0,-59.87,22.3761349,120.1596832,0.02,15,2.3,0,0,100,100,0.000027,0,0,0,0,3,0.011
11018,-0.0239,-0.0431,9.8,0,0,0,0,0,0,-59.87,22.3761349,120.1596832,0.02,15,2.3,0,0,100,100,0.000027,0,0,0,0,3,0.011
11040,0.0048,0.0144,9.7617,0,0,0,0,0,0,-59.87,22.3761349,120.1596832,0.02,15,2.3,0,0,100,100,0.000027,0,0,0,0,3,0.011
11061,0.0191,0.0479,9.7474,0,0,0,0,0,0,-59.87,22.3761349,120.1596832,0.02,15,2.3,0,0,100,100,0.000027,0,0,0,0,3,0.011
11093,-0.0239,-0.0191,9.7856,0,0,0,0,0,0,-59.87,22.3761349,120.1596832,0.02,15,2.3,0,0,100,100,0.000027,0,0,0,0,3,0.011
11115,-0.0048,0,9.7617,0,0,0,0,0,0,-59.87,22.3761349,120.1596832,0.02,15,2.3,0,0,100,100,0.000027,0,0,0,0,3,0.011
11137,0.0096,0.0191,9.7474,0,0,0,0,0,0,-59.87,22.3761349,120.1596832,0.02,15,2.3,0,0,100,100,0.000027,0,0,0,0,3,0.011
11168,-0.0191,-0.0191,9.7809,0,0,0,0,0,0,-59.87,22.3761349,120.1596832,0.02,15,2.3,0,0,100,100,0.000027,0,0,0,0,3,0.011
11190,-0.0383,-0.0383,9.7521,0,0,0,0,0,0,-59.87,22.3761349,120.1596832,0.02,15,2.3,0,0,100,100,0.000027,0,0,0,0,3,0.011
11219,0,0.0383,9.7426,0,0,0,0,0,0,-59.87,22.3761349,120.1596832,0.02,15,2.3,0,0,100,100,0.000027,0,0,0,0,3,0.011
11241,0.0239,0.0239,9.7617,0,0,0,0,0,0,-59.87,22.3761349,120.1596832,0.02,15,2.3,0,0,100,100,0.000027,0,0,0,0,3,0.011
11263,-0.0239,-0.0048,9.7569,0,0,0,0,0,0,-59.87,22.3761349,120.1596832,0.02,15,2.3,0,0,100,100,0.000027,0,0,0,0,3,0.011
11294,-0.0048,0,9.7378,0,0,0,0,0,0,-59.87,22.3761349,120.1596832,0.02,15,2.3,0,0,100,100,0.000027,0,0,0,0,3,0.011
11316,0.0048,0.0431,9.7234,0,0,0,0,0,0,-59.87,22.3761349,120.1596832,0.02,15,2.3,0,0,100,100,0.000027,0,0,0,0,3,0.011
11338,0,0.0574,9.7521,0,0,0,0,0,0,-59.87,22.3761349,120.1596832,0.02,15,2.3,0,0,100,100,0.000027,0,0,0,0,3,0.011
11370,0.0239,0.0383,9.733,0,0,0,0,0,0,-59.87,22.3761349,120.1596832,0.02,15,2.3,0,0,100,100,0.000027,0,0,0,0,3,0.011
11391,-0.0191,-0.0287,9.8144,0,0,0,0,0,0,-59.87,22.3761349,120.1596832,0.02,15,2.3,0,0,100,100,0.000027,0,0,0,0,3,0.011
11421,0,0.0287,9.7904,0,0,0,0,0,0,-59.87,22.3761349,120.1596832,0.03,15,2.3,0,0,100,100,0.000027,0,0,0,0,3,0.011
11442,0.0096,0,9.7043,0,0,0,0,0,0,-59.87,22.3761349,120.1596832,0.03,15,2.3,0,0,100,100,0.000027,0,0,0,0,3,0.011
11464,0.0048,0.0335,9.7474,0,0,0,0,0,0,-59.87,22.3761349,120.1596832,0.03,15,2.3,0,0,100,100,0.000027,0,0,0,0,3,0.011
11496,0.0048,0.0335,9.7713,0,0,0,0,0,0,-59.87,22.3761349,120.1596832,0.03,15,2.3,0,0,100,100,0.000027,0,0,0,0,3,0.011
11517,0.0191,-0.0144,9.8335,0,0,0,0,0,0,-59.87,22.3761349,120.1596832,0.03,15,2.3,0,0,100,100,0.000027,0,0,0,0,3,0.011
11539,0.0191,0.0239,9.7091,0,0,0,0,0,0,-59.87,22.3761349,120.1596832,0.03,15,2.3,0,0,100,100,0.000027,0,0,0,0,3,0.011
11570,0.0144,0.0383,9.8096,0,0,0,0,0,0,-59.87,22.3761349,120.1596832,0.03,15,2.3,0,0,100,100,0.000027,0,0,0,0,3,0.011
11592,-0.0048,0.0096,9.7569,0,0,0,0,0,0,-59.87,22.3761349,120.1596832,0.03,15,2.3,0,0,100,100,0.000027,0,0,0,0,3,0.011
11622,0.0191,0.0191,9.7043,0,0,0,0,0,0,-59.87,22.3761349,120.1596832,0.03,15,2.2,0,0,100,100,0.000027,0,0,0,0,3,0.011
11643,0.0096,0.0479,9.7282,0,0,0,0,0,0,-59.87,22.3761349,120.1596832,0.03,15,2.2,0,0,100,100,0.000027,0,0,0,0,3,0.011
11665,0,0,9.7761,0,0,0,0,0,0,-59.87,22.3761349,120.1596832,0.03,15,2.2,0,0,100,100,0.000027,0,0,0,0,3,0.011
11697,0.0096,0.0574,9.7713,0,0,0,0,0,0,-59.87,22.3761349,120.1596832,0.03,15,2.2,0,0,100,100,0.000027,0,0,0,0,3,0.011
11718,0.0096,0.0574,9.7426,0,0,0,0,0,0,-59.87,22.3761349,120.1596832,0.03,15,2.2,0,0,100,100,0.000027,0,0,0,0,3,0.011
11740,-0.0287,0.0191,9.7426,0,0,0,0,0,0,-59.87,22.3761349,120.1596832,0.03,15,2.2,0,0,100,100,0.000027,0,0,0,0,3,0.011
11772,0,0.0479,9.733,0,0,0,0,0,0,-59.87,22.3761349,120.1596832,0.03,15,2.2,0,0,100,100,0.000027,0,0,0,0,3,0.011
11793,0.0096,0.0479,9.733,0,0,0,0,0,0,-59.87,22.3761349,120.1596832,0.03,15,2.2,0,0,100,100,0.000027,0,0,0,0,3,0.011
11823,0.0191,-0.0048,9.8287,0,0,0,0,0,0,-59.87,22.3761349,120.1596832,0.03,16,2.09,0,0,100,100,0.000027,0,0,0,0,3,0.011
11845,0.0239,0.0431,9.7187,0,0,0,0,0,0,-59.87,22.3761349,120.1596832,0.03,16,2.09,0,0,100,100,0.000027,0,0,0,0,3,0.011
11866,0.0239,0.0526,9.7378,0,0,0,0,0,0,-59.87,22.3761349,120.1596832,0.03,16,2.09,0,0,100,100,0.000027,0,0,0,0,3,0.011
11898,0.0048,0.0096,9.8383,0,0,0,0,0,0,-59.87,22.3761349,120.1596832,0.03,16,2.09,0,0,100,100,0.000027,0,0,0,0,3,0.011
11920,-0.0048,0,9.7617,0,0,0,0,0,0,-59.87,22.3761349,120.1596832,0.03,16,2.09,0,0,100,100,0.000027,0,0,0,0,3,0.011
11941,0,0.0431,9.7569,0,0,0,0,0,0,-59.87,22.3761349,120.1596832,0.03,16,2.09,0,0,100,100,0.000027,0,0,0,0,3,0.011
11973,0.0048,0.0383,9.7617,0,0,0,0,0,0,-59.87,22.3761349,120.1596832,0.03,16,2.09,0,0,100,100,0.000027,0,0,0,0,3,0.011
11995,0.0096,0.0526,9.7426,0,0,0,0,0,0,-59.87,22.3761349,120.1596832,0.03,16,2.09,0,0,100,100,0.000027,0,0,0,0,3,0.011
12024,0.0048,0.0287,9.7904,0,0,0,0,0,0,-59.87,22.3761349,120.1596832,0.04,16,2.09,0,0,100,100,0.000027,0,0,0,0,3,0.011
12046,0,0.0048,9.8239,0,0,0,0,0,0,-59.87,22.3761349,120.1596832,0.04,16,2.09,0,0,100,100,0.000027,0,0,0,0,3,0.011
12067,0,-0.0144,9.8431,0,0,0,0,0,0,-59.87,22.3761349,120.1596832,0.04,16,2.09,0,0,100,100,0.000027,0,0,0,0,3,0.011
12099,-0.0096,0.0622,9.733,0,0,0,0,0,0,-59.87,22.3761349,120.1596832,0.04,16,2.09,0,0,100,100,0.000027,0,0,0,0,3,0.011
12121,0,0.0144,9.7761,0,0,0,0,0,0,-59.87,22.3761349,120.1596832,0.04,16,2.09,0,0,100,100,0.000027,0,0,0,0,3,0.011
12143,0,-0.0191,9.8287,0,0,0,0,0,0,-59.87,22.3761349,120.1596832,0.04,16,2.09,0,0,100,100,0.000027,0,0,0,0,3,0.011
12174,0.0383,0.0287,9.7474,0,0,0,0,0,0,-59.87,22.3761349,120.1596832,0.04,16,2.09,0,0,100,100,0.000027,0,0,0,0,3,0.011
12196,0.0048,0.0383,9.8096,0,0,0,0,0,0,-59.87,22.3761349,120.1596832,0.04,16,2.09,0,0,100,100,0.000027,0,0,0,0,3,0.011
12226,0.0048,-0.0335,9.8239,0,0,0,0,0,0,-59.87,22.3761349,120.1596832,0.04,16,2.09,0,0,100,100,0.000027,0,0,0,0,3,0.011
12247,0,0.0574,9.7713,0,0,0,0,0,0,-59.87,22.3761349,120.1596832,0.04,16,2.09,0,0,100,100,0.000027,0,0,0,0,3,0.011
12269,-0.0048,0.0191,9.7856,0,0,0,0,0,0,-59.87,22.3761349,120.1596832,0.04,16,2.09,0,0,100,100,0.000027,0,0,0,0,3,0.011
12301,0.0096,0,9.8144,0,0,0,0,0,0,-59.87,22.3761349,120.1596832,0.04,16,2.09,0,0,100,100,0.000027,0,0,0,0,3,0.011
12322,0.0096,0.0479,9.7282,0,0,0,0,0,0,-59.87,22.3761349,120.1596832,0.04,16,2.09,0,0,100,100,0.000027,0,0,0,0,3,0.011
12344,-0.0096,0.0383,9.7856,0,0,0,0,0,0,-59.87,22.3761349,120.1596832,0.04,16,2.09,0,0,100,100,0.000027,0,0,0,0,3,0.011
12376,0.0239,-0.0239,9.8574,0,0,0,0,0,0,-59.87,22.3761349,120.1596832,0.04,16,2.09,0,0,100,100,0.000027,0,0,0,0,3,0.011
12397,-0.0048,-0.0526,9.8766,0,0,0,0,0,0,-59.87,22.3761349,120.1596832,0.04,16,2.09,0,0,100,100,0.000027,0,0,0,0,3,0.011
12427,0.0191,0.0096,9.7809,0,0,0,0,0,0,-59.87,22.3761349,120.1596832,0.04,16,2.09,0,0,100,100,0.000027,0,0,0,0,3,0.011
12449,0,-0.0239,9.8144,0,0,0,0,0,0,-59.87,22.3761349,120.1596832,0.04,16,2.09,0,0,100,100,0.000027,0,0,0,0,3,0.011
12470,0,-0.0479,9.8287,0,0,0,0,0,0,-59.87,22.3761349,120.1596832,0.04,16,2.09,0,0,100,100,0.000027,0,0,0,0,3,0.011
12502,-0.0048,0.0431,9.7856,0,0,0,0,0,0,-59.87,22.3761349,120.1596832,0.04,16,2.09,0,0,100,100,0.000027,0,0,0,0,3,0.011
12524,0.0048,0.0191,9.8335,0,0,0,0,0,0,-59.87,22.3761349,120.1596832,0.04,16,2.09,0,0,100,100,0.000027,0,0,0,0,3,0.011
12545,0,-0.0383,9.8096,0,0,0,0,0,0,-59.87,22.3761349,120.1596832,0.04,16,2.09,0,0,100,100,0.000027,0,0,0,0,3,0.011
12577,-0.0287,-0.0622,9.8239,0,0,0,0,0,0,-59.87,22.3761349,120.1596832,0.04,16,2.09,0,0,100,100,0.000027,0,0,0,0,3,0.011
12599,0.0096,0.0191,9.7856,0,0,0,0,0,0,-59.87,22.3761349,120.1596832,0.04,16,2.09,0,0,100,100,0.000027,0,0,0,0,3,0.011
12628,0.0048,-0.0335,9.8,0,0,0,0,0,0,-59.87,22.3761349,120.1596832,0.05,16,1.9,0,0,100,100,0.000027,0,0,0,0,3,0.011
12650,-0.0191,-0.0287,9.8287,0,0,0,0,0,0,-59.87,22.3761349,120.1596832,0.05,16,1.9,0,0,100,100,0.000027,0,0,0,0,3,0.011
12672,0.0144,0.0622,9.7521,0,0,0,0,0,0,-59.87,22.3761349,120.1596832,0.05,16,1.9,0,0,100,100,0.000027,0,0,0,0,3,0.011
12703,0.0287,0,9.8526,0,0,0,0,0,0,-59.87,22.3761349,120.1596832,0.05,16,1.9,0,0,100,100,0.000027,0,0,0,0,3,0.011
12725,0,-0.0479,9.8766,0,0,0,0,0,0,-59.87,22.3761349,120.1596832,0.05,16,1.9,0,0,100,100,0.000027,0,0,0,0,3,0.011
12747,0.0096,0.0287,9.7569,0,0,0,0,0,0,-59.87,22.3761349,120.1596832,0.05,16,1.9,0,0,100,100,0.000027,0,0,0,0,3,0.011
12778,0.0096,-0.0191,9.8144,0,0,0,0,0,0,-59.87,22.3761349,120.1596832,0.05,16,1.9,0,0,100,100,0.000027,0,0,0,0,3,0.011
12800,0.0144,0.0383,9.7521,0,0,0,0,0,0,-59.87,22.3761349,120.1596832,0.05,16,1.9,0,0,100,100,0.000027,0,0,0,0,3,0.011
12830,0.0191,0.0431,9.7665,0,0,0,0,0,0,-59.87,22.3761349,120.1596832,0.05,15,1.9,0,0,100,100,0.000027,0,0,0,0,3,0.011
12851,0,0.0335,9.8191,0,0,0,0,0,0,-59.87,22.3761349,120.1596832,0.05,15,1.9,0,0,100,100,0.000027,0,0,0,0,3,0.011
12873,0,-0.0335,9.8144,0,0,0,0,0,0,-59.87,22.3761349,120.1596832,0.05,15,1.9,0,0,100,100,0.000027,0,0,0,0,3,0.011
12905,0,0.0383,9.7761,0,0,0,0,0,0,-59.87,22.3761349,120.1596832,0.05,15,1.9,0,0,100,100,0.000027,0,0,0,0,3,0.011
12926,0,0.0144,9.8,0,0,0,0,0,0,-59.87,22.3761349,120.1596832,0.05,15,1.9,0,0,100,100,0.000027,0,0,0,0,3,0.011
12948,0.0239,0.0096,9.8239,0,0,0,0,0,0,-59.87,22.3761349,120.1596832,0.05,15,1.9,0,0,100,100,0.000027,0,0,0,0,3,0.011
12980,0.0048,0.0574,9.7426,0,0,0,0,0,0,-59.87,22.3761349,120.1596832,0.05,15,1.9,0,0,100,100,0.000027,0,0,0,0,3,0.011
13001,-0.0048,0.0383,9.7665,0,0,0,0,0,0,-59.87,22.3761349,120.1596832,0.05,15,1.9,0,0,100,100,0.000027,0,0,0,0,3,0.011
13031,0,0.0239,9.7713,0,0,0,0,0,0,-59.87,22.3761349,120.1596756,0.05,16,1.9,0,0,100,100,0.000027,0,0,0,0,3,0.011
13053,0.0144,-0.0144,9.8,0,0,0,0,0,0,-59.87,22.3761349,120.1596756,0.05,16,1.9,0,0,100,100,0.000027,0,0,0,0,3,0.011
13074,0.0048,0.0574,9.7234,0,0,0,0,0,0,-59.87,22.3761349,120.1596756,0.05,16,1.9,0,0,100,100,0.000027,0,0,0,0,3,0.011
13106,0,0.0239,9.7952,0,0,0,0,0,0,-59.87,22.3761349,120.1596756,0.05,16,1.9,0,0,100,100,0.000027,0,0,0,0,3,0.011
13128,-0.0048,-0.0287,9.8144,0,0,0,0,0,0,-59.87,22.3761349,120.1596756,0.05,16,1.9,0,0,100,100,0.000027,0,0,0,0,3,0.011
13149,0.0239,0.0431,9.7234,0,0,0,0,0,0,-59.87,22.3761349,120.1596756,0.05,16,1.9,0,0,100,100,0.000027,0,0,0,0,3,0.011
13181,0,0.0383,9.7952,0,0,0,0,0,0,-59.87,22.3761349,120.1596756,0.05,16,1.9,0,0,100,100,0.000027,0,0,0,0,3,0.011
13203,0,0.0239,9.8622,0,0,0,0,0,0,-59.87,22.3761349,120.1596756,0.05,16,1.9,0,0,100,100,0.000027,0,0,0,0,3,0.011
13232,-0.0191,-0.0574,9.8383,0,0,0,0,0,0,-59.87,22.376133,120.1596756,0.05,16,1.9,0,0,100,100,0.000027,0,0,0,0,3,0.011
13254,0.0144,0.0335,9.7474,0,0,0,0,0,0,-59.87,22.376133,120.1596756,0.05,16,1.9,0,0,100,100,0.000027,0,0,0,0,3,0.011
13275,0.0048,0.0048,9.8144,0,0,0,0,0,0,-59.87,22.376133,120.1596756,0.05,16,1.9,0,0,100,100,0.000027,0,0,0,0,3,0.011
13307,0,0.0574,9.7474,0,0,0,0,0,0,-59.87,22.376133,120.1596756,0.05,16,1.9,0,0,100,100,0.000027,0,0,0,0,3,0.011
13329,0,0.0431,9.7139,0,0,0,0,0,0,-59.87,22.376133,120.1596756,0.05,16,1.9,0,0,100,100,0.000027,0,0,0,0,3,0.011
13350,0,0.0574,9.7282,0,0,0,0,0,0,-59.87,22.376133,120.1596756,0.05,16,1.9,0,0,100,100,0.000027,0,0,0,0,3,0.011
13382,0.0048,0.0048,9.7569,0,0,0,0,0,0,-59.87,22.376133,120.1596756,0.05,16,1.9,0,0,100,100,0.000027,0,0,0,0,3,0.011
13404,0,0.0574,9.7713,0,0,0,0,0,0,-59.87,22.376133,120.1596756,0.05,16,1.9,0,0,100,100,0.000027,0,0,0,0,3,0.011
13433,0.0287,0.0383,9.8048,0,0,0,0,0,0,-59.87,22.376133,120.1596756,0.06,16,1.9,0,0,100,100,0.000027,0,0,0,0,3,0.011
13455,0.0383,-0.0144,9.8479,0,0,0,0,0,0,-59.87,22.376133,120.1596756,0.06,16,1.9,0,0,100,100,0.000027,0,0,0,0,3,0.011
13477,0.0144,0.0526,9.7904,0,0,0,0,0,0,-59.87,22.376133,120.1596756,0.06,16,1.9,0,0,100,100,0.000027,0,0,0,0,3,0.011
13509,0.0287,0.0574,9.7234,0,0,0,0,0,0,-59.87,22.376133,120.1596756,0.06,16,1.9,0,0,100,100,0.000027,0,0,0,0,3,0.011
13530,0.0144,0.0239,9.7761,0,0,0,0,0,0,-59.87,22.376133,120.1596756,0.06,16,1.9,0,0,100,100,0.000027,0,0,0,0,3,0.011
13552,0.0191,0.0287,9.7569,0,0,0,0,0,0,-59.87,22.376133,120.1596756,0.06,16,1.9,0,0,100,100,0.000027,0,0,0,0,3,0.011
13584,0.0096,0.0144,9.7521,0,0,0,0,0,0,-59.87,22.376133,120.1596756,0.06,16,1.9,0,0,100,100,0.000027,0,0,0,0,3,0.011
13605,0.0287,0.0574,9.7282,0,0,0,0,0,0,-59.87,22.376133,120.1596756,0.06,16,1.9,0,0,100,100,0.000027,0,0,0,0,3,0.011
13635,0.0144,0.0144,9.8383,0,0,0,0,0,0,-59.87,22.376133,120.1596756,0.06,16,1.9,0,0,100,100,0.000027,0,0,0,0,3,0.011
13656,0.0144,0.0191,9.7761,0,0,0,0,0,0,-59.87,22.376133,120.1596756,0.06,16,1.9,0,0,100,100,0.000027,0,0,0,0,3,0.011
13678,0,0.0574,9.7809,0,0,0,0,0,0,-59.87,22.376133,120.1596756,0.06,16,1.9,0,0,100,100,0.000027,0,0,0,0,3,0.011
13710,0.0287,0.0479,9.7904,0,0,0,0,0,0,-59.87,22.376133,120.1596756,0.06,16,1.9,0,0,100,100,0.000027,0,0,0,0,3,0.011
13731,-0.0144,-0.0144,9.7474,0,0,0,0,0,0,-59.87,22.376133,120.1596756,0.06,16,1.9,0,0,100,100,0.000027,0,0,0,0,3,0.011
13753,0.0144,0.0287,9.7426,0,0,0,0,0,0,-59.87,22.376133,120.1596756,0.06,16,1.9,0,0,100,100,0.000027,0,0,0,0,3,0.011
13785,0.0048,0.0048,9.7856,0,0,0,0,0,0,-59.87,22.376133,120.1596756,0.06,16,1.9,0,0,100,100,0.000027,0,0,0,0,3,0.011
13806,0.0048,0.0431,9.7521,0,0,0,0,0,0,-59.87,22.376133,120.1596756,0.06,16,1.9,0,0,100,100,0.000027,0,0,0,0,3,0.011
13836,0.0287,0.0383,9.7426,0,0,0,0,0,0,-59.87,22.376133,120.1596756,0.06,16,1.9,0,0,100,100,0.000027,0,0,0,0,3,0.011
13858,0.0383,0.0144,9.8144,0,0,0,0,0,0,-59.87,22.376133,120.1596756,0.06,16,1.9,0,0,100,100,0.000027,0,0,0,0,3,0.011
13879,0.0096,-0.0048,9.8574,0,0,0,0,0,0,-59.87,22.376133,120.1596756,0.06,16,1.9,0,0,100,100,0.000027,0,0,0,0,3,0.011
13911,0.0048,0.0431,9.7091,0,0,0,0,0,0,-59.87,22.376133,120.1596756,0.06,16,1.9,0,0,100,100,0.000027,0,0,0,0,3,0.011
13933,0,0.0287,9.7521,0,0,0,0,0,0,-59.87,22.376133,120.1596756,0.06,16,1.9,0,0,100,100,0.000027,0,0,0,0,3,0.011
13954,-0.0144,-0.0096,9.7474,0,0,0,0,0,0,-59.87,22.376133,120.1596756,0.06,16,1.9,0,0,100,100,0.000027,0,0,0,0,3,0.011
13986,-0.0048,0.0335,9.7426,0,0,0,0,0,0,-59.87,22.376133,120.1596756,0.06,16,1.9,0,0,100,100,0.000027,0,0,0,0,3,0.011
14008,0.0048,0.0239,9.7474,0,0,0,0,0,0,-59.87,22.376133,120.1596756,0.06,16,1.9,0,0,100,100,0.000027,0,0,0,0,3,0.011
14037,-0.0048,0.0191,9.7665,0,0,0,0,0,0,-59.87,22.376133,120.1596756,0.06,16,1.9,0,0,100,100,0.000027,0,0,0,0,3,0.011
14059,0.0048,0.0287,9.7378,0,0,0,0,0,0,-59.87,22.376133,120.1596756,0.06,16,1.9,0,0,100,100,0.000027,0,0,0,0,3,0.011
14081,0.0191,0.0574,9.733,0,0,0,0,0,0,-59.87,22.376133,120.1596756,0.06,16,1.9,0,0,100,100,0.000027,0,0,0,0,3,0.011
14112,0,0.0383,9.7665,0,0,0,0,0,0,-59.87,22.376133,120.1596756,0.06,16,1.9,0,0,100,100,0.000027,0,0,0,0,3,0.011
14134,0,0.0048,9.7378,0,0,0,0,0,0,-59.87,22.376133,120.1596756,0.06,16,1.9,0,0,100,100,0.000027,0,0,0,0,3,0.011
14156,-0.0048,0.0479,9.7234,0,0,0,0,0,0,-59.87,22.376133,120.1596756,0.06,16,1.9,0,0,100,100,0.000027,0,0,0,0,3,0.011
14188,0.0144,0.0383,9.7761,0,0,0,0,0,0,-59.87,22.376133,120.1596756,0.06,16,1.9,0,0,100,100,0.000027,0,0,0,0,3,0.011
14209,0.0048,-0.0096,9.733,0,0,0,0,0,0,-59.87,22.376133,120.1596756,0.06,16,1.9,0,0,100,100,0.000027,0,0,0,0,3,0.011
14239,0.0239,0.0287,9.733,0,0,0,0,0,0,-59.87,22.376133,120.1596756,0.06,16,1.9,0,0,100,100,0.000027,0,0,0,0,3,0.011
14261,0.0287,0.0718,9.7187,0,0,0,0,0,0,-59.87,22.376133,120.1596756,0.06,16,1.9,0,0,100,100,0.000027,0,0,0,0,3,0.011
14282,0.0287,0.0431,9.8144,0,0,0,0,0,0,-59.87,22.376133,120.1596756,0.06,16,1.9,0,0,100,100,0.000027,0,0,0,0,3,0.011
14314,0.0096,0.0335,9.733,0,0,0,0,0,0,-59.87,22.376133,120.1596756,0.06,16,1.9,0,0,100,100,0.000027,0,0,0,0,3,0.011
14336,-0.0239,0.0431,9.7234,0,0,0,0,0,0,-59.87,22.376133,120.1596756,0.06,16,1.9,0,0,100,100,0.000027,0,0,0,0,3,0.011
14357,0.0048,0.0479,9.7474,0,0,0,0,0,0,-59.87,22.376133,120.1596756,0.06,16,1.9,0,0,100,100,0.000027,0,0,0,0,3,0.011
14389,0,0.0479,9.7521,0,0,0,0,0,0,-59.87,22.376133,120.1596756,0.06,16,1.9,0,0,100,100,0.000027,0,0,0,0,3,0.011
14411,0.0239,0.0383,9.7665,0,0,0,0,0,0,-59.87,22.376133,120.1596756,0.06,16,1.9,0,0,100,100,0.000027,0,0,0,0,3,0.011
14440,0.0144,0.0096,9.7952,0,0,0,0,0,0,-59.87,22.376133,120.1596756,0.06,16,1.9,0,0,100,100,0.000027,0,0,0,0,3,0.011
14462,0.0191,0.0144,9.8,0,0,0,0,0,0,-59.87,22.376133,120.1596756,0.06,16,1.9,0,0,100,100,0.000027,0,0,0,0,3,0.011
14484,0.0048,0.0287,9.7761,0,0,0,0,0,0,-59.87,22.376133,120.1596756,0.06,16,1.9,0,0,100,100,0.000027,0,0,0,0,3,0.011
14515,0.0191,0,9.7904,0,0,0,0,0,0,-59.87,22.376133,120.1596756,0.06,16,1.9,0,0,100,100,0.000027,0,0,0,0,3,0.011
14537,-0.0048,0.0526,9.7809,0,0,0,0,0,0,-59.87,22.376133,120.1596756,0.06,16,1.9,0,0,100,100,0.000027,0,0,0,0,3,0.011
14559,0,0.0383,9.7713,0,0,0,0,0,0,-59.87,22.376133,120.1596756,0.06,16,1.9,0,0,100,100,0.000027,0,0,0,0,3,0.011
14590,0.0287,0.0479,9.7856,0,0,0,0,0,0,-59.87,22.376133,120.1596756,0.06,16,1.9,0,0,100,100,0.000027,0,0,0,0,3,0.011
14612,0.0096,0.0144,9.8144,0,0,0,0,0,0,-59.87,22.376133,120.1596756,0.06,16,1.9,0,0,100,100,0.000027,0,0,0,0,3,0.011
14642,0.0287,0.0431,9.7809,0,0,0,0,0,0,-59.87,22.376133,120.1596756,0.07,16,1.9,0,0,100,100,0.000027,0,0,0,0,3,0.011
14663,-0.0096,0.0526,9.7426,0,0,0,0,0,0,-59.87,22.376133,120.1596756,0.07,16,1.9,0,0,100,100,0.000027,0,0,0,0,3,0.011
14685,-0.0239,0,9.7665,0,0,0,0,0,0,-59.87,22.376133,120.1596756,0.07,16,1.9,0,0,100,100,0.000027,0,0,0,0,3,0.011
14717,0,0.0287,9.7761,0,0,0,0,0,0,-59.87,22.376133,120.1596756,0.07,16,1.9,0,0,100,100,0.000027,0,0,0,0,3,0.011
14739,-0.0479,0.0144,9.8431,0,0,0,0,0,0,-59.87,22.376133,120.1596756,0.07,16,1.9,0,0,100,100,0.000027,0,0,0,0,3,0.011
14760,0.0335,0.0574,9.7569,0,0,0,0,0,0,-59.87,22.376133,120.1596756,0.07,16,1.9,0,0,100,100,0.000027,0,0,0,0,3,0.011
14792,-0.067,-0.0526,9.6899,0,0,0,0,0,0,-59.87,22.376133,120.1596756,0.07,16,1.9,0,0,100,100,0.000027,0,0,0,0,3,0.011
14814,0,-0.1148,9.7043,0,0,0,0,0,0,-59.87,22.376133,120.1596756,0.07,16,1.9,0,0,100,100,0.000027,0,0,0,0,3,0.011
14843,-0.1101,0.1292,9.4603,0,0,0,0,0,0,-59.87,22.376133,120.1596756,0.07,16,1.9,0,0,100,100,0.000027,0,0,0,0,3,0.011
14865,-0.4163,-0.0526,9.8526,0,0,0,0,0,0,-59.87,22.376133,120.1596756,0.07,16,1.9,0,0,100,100,0.000027,0,0,0,0,3,0.011
14887,-0.7561,-0.7417,9.7426,-0.1057,0,0,0,0,0,-59.87,22.376133,120.1596756,0.07,16,1.9,0,0,100,100,0.000027,0,0,0,0,3,0.011
14918,0.4402,-0.0861,9.5799,-0.0593,-0.0515,0,0,0,0,-59.87,22.376133,120.1596756,0.07,16,1.9,0,0,100,100,0.000027,0,0,0,0,3,0.011
14940,-0.0957,0.0766,9.8766,-0.0623,0,0,0,0,0,-59.87,22.376133,120.1596756,0.07,16,1.9,0,0,100,100,0.000027,0,0,0,0,3,0.011
14962,-0.3063,-0.0048,10.2594,-0.0831,0,0,0,0,0,-59.87,22.376133,120.1596756,0.07,16,1.9,0,0,100,100,0.000027,0,0,0,0,3,0.011
14994,-0.0048,0.1723,9.9148,-0.0764,0,-0.3662,-0.0005,0,0,-59.88,22.376133,120.1596756,0.07,16,1.9,0,0,100,100,0.000027,0,0,0,0,3,0.011
15015,-0.1723,-0.1771,10.5704,-0.0846,0,-0.2441,-0.0009,0,0,-59.88,22.376133,120.1596756,0.07,16,1.9,0,0,100,100,0.000027,0,0,0,0,3,0.011
15055,-0.1771,-0.0622,9.9675,-0.0924,0,0.3052,-0.0003,0,0,-59.88,22.376133,120.1596756,0.07,16,1.9,0,0,100,100,0.000027,0,0,0,0,3,0.011
15077,0.8613,0.3445,9.2641,0,0,-0.1831,-0.0006,0,0,-59.87,22.376133,120.1596756,0.07,16,1.9,0,0,100,100,0.000027,0,0,0,0,3,0.011
15098,-0.4546,-0.3397,10.0632,0,0,0.061,-0.0004,0,0,-59.87,22.376133,120.1596756,0.07,16,1.9,0,0,100,100,0.000027,0,0,0,0,3,0.011
15130,0.2153,-0.0479,9.7282,0,0,-0.061,-0.0005,0,0,-59.87,22.376133,120.1596756,0.07,16,1.9,0,0,100,100,0.000027,0,0,0,0,3,0.011
15152,-0.0479,0.1005,9.3502,0,0,-0.061,-0.0005,0,0,-59.87,22.376133,120.1596756,0.07,16,1.9,0,0,100,100,0.000027,0,0,0,0,3,0.011
15174,-0.402,-0.1579,10.1637,-0.0601,0,0,-0.0005,0,0,-59.87,22.376133,120.1596756,0.07,16,1.9,0,0,100,100,0.000027,0,0,0,0,3,0.011
15205,0.1244,0.0431,9.6756,0,0,0,-0.0005,0,0,-59.87,22.376133,120.1596756,0.07,16,1.9,0,0,100,100,0.000027,0,0,0,0,3,0.011
15227,0.1723,0.0335,9.7234,0,0,-0.061,-0.0005,0,0,-59.87,22.376133,120.1596756,0.07,16,1.9,0,0,100,100,0.000027,0,0,0,0,3,0.011
15257,0.4737,-0.0191,9.9148,0,0,-0.1831,-0.0007,0,0,-59.88,22.376133,120.1596756,0.07,16,1.9,0,0,100,100,0.000027,0,0,0,0,3,0.011
15278,-0.2632,0.0287,9.6852,0,0,-0.3052,-0.0011,0,0,-59.9,22.376133,120.1596756,0.07,16,1.9,0,0,100,100,0.000027,0,0,0,0,3,0.011
15300,-0.1962,0.0526,9.6947,0,0,-0.1221,-0.0012,0,0,-59.91,22.376133,120.1596756,0.07,16,1.9,0,0,100,100,0.000027,0,0,0,0,3,0.011
15332,0.1196,-0.0239,9.7282,0,0,0.1221,-0.0009,0,0,-59.91,22.376133,120.1596756,0.07,16,1.9,0,0,100,100,0.000027,0,0,0,0,3,0.011
15354,-0.1436,0.1196,9.7521,0,0,-0.1221,-0.001,0,0,-59.91,22.376133,120.1596756,0.07,16,1.9,0,0,100,100,0.000027,0,0,0,0,3,0.011
15375,0.4067,-1.5887,11.3552,0,-0.1361,-11.2915,-0.0177,0,0,-60.14,22.376133,120.1596756,0.07,16,1.9,0,0,100,100,0.000027,0,0,0,0,3,0.011
15407,1.4164,-0.4929,9.4076,0.1332,-0.1664,5.6152,-0.0079,0,0,-60.28,22.376133,120.1596756,0.07,16,1.9,0,0,100,100,0.000027,0,0,0,0,3,0.011
15429,-0.0526,-0.6077,9.6708,0.1174,-0.204,2.0142,-0.0042,0,0,-60.11,22.376133,120.1596756,0.07,16,1.9,0,0,100,100,0.000027,0,0,0,0,3,0.011
15458,-0.1531,-0.3493,10.5991,0.0944,-0.2163,-6.4087,-0.0134,0,0,-60.25,22.376133,120.1596756,0.07,16,1.9,0,0,100,100,0.000027,0,0,0,0,3,0.011
15480,-0.1866,0.2345,10.0728,0.0705,-0.178,-11.2915,-0.029,0,0,-60.61,22.376133,120.1596756,0.07,16,1.9,0,0,100,100,0.000027,0,0,0,0,3,0.011
15512,-0.067,0.402,9.5416,0.0588,-0.1287,-8.7891,-0.0395,0,0,-61.23,22.376133,120.1596756,0.07,16,1.9,0,0,100,100,0.000027,0,0,0,0,3,0.011
15534,-0.3493,1.0719,10.0345,0,0,-1.9531,-0.0391,0,0,-61.43,22.376133,120.1596756,0.07,16,1.9,0,0,100,100,0.000027,0,0,0,0,3,0.011
15565,-0.0239,1.56,10.202,0,0.1082,-7.5073,-0.0469,0,0,-61.68,22.376133,120.1596756,0.07,16,1.9,0,0,100,100,0.000027,0,0,0,0,3,0.011
15587,-0.4354,1.871,11.336,0,0.2581,-5.9814,-0.0518,0,0,-62.06,22.376133,120.1596756,0.07,16,1.9,0,0,100,100,0.000027,0,0,0,0,3,0.011
15609,-0.6412,1.3829,11.5896,-0.0716,0.3537,-2.7466,-0.0515,0,0,-62.19,22.376133,120.1596756,0.07,16,1.9,0,0,100,100,0.000027,0,0,0,0,3,0.011
15641,-0.6651,0.7608,12.0969,-0.122,0.3883,-8.7891,-0.0601,0,0,-62.53,22.376133,120.1596756,0.07,16,1.9,0,0,100,100,0.000027,0,0,0,0,3,0.011
15671,-0.0861,0.6125,12.1639,-0.119,0.4073,-16.5405,-0.0795,0,0,-63.38,22.3761311,120.1596756,0.08,16,1.8,0,0,100,100,0.000027,0,0,0,0,3,0.011
15692,0.1053,1.6413,11.5992,-0.0999,0.5122,-18.6157,-0.1004,0,0,-64.03,22.3761311,120.1596756,0.08,16,1.8,0,0,100,100,0.000027,0,0,0,0,3,0.011
15724,0.0909,1.0001,11.4413,-0.0837,0.5537,-12.7563,-0.1108,0,0,-64.89,22.3761311,120.1596756,0.08,16,1.8,0,0,100,100,0.000027,0,0,0,0,3,0.011
15746,-0.4546,0.847,10.958,-0.1152,0.5786,-12.0239,-0.1192,0,0,-65.31,22.3761311,120.1596756,0.08,16,1.8,0,0,100,100,0.000027,0,0,0,0,3,0.011
15778,-0.2297,1.1484,11.1063,-0.1249,0.6271,-17.0288,-0.1343,0,0,-66.47,22.3761311,120.1596756,0.08,16,1.8,0,0,100,100,0.000027,0,0,0,0,3,0.011
15799,-0.2967,1.1054,10.8288,-0.1395,0.6677,-14.8926,-0.145,0,0,-67.03,22.3761311,120.1596756,0.08,16,1.8,0,0,100,100,0.000027,0,0,0,0,3,0.011
15831,-0.3063,0.957,10.5082,-0.1537,0.6923,-10.8643,-0.1488,0,0,-67.69,22.3761311,120.1596756,0.08,16,1.8,0,0,100,100,0.000027,0,0,0,0,3,0.011
15853,-0.5503,0.8709,10.4173,-0.1874,0.7075,-11.2305,-0.1528,0,0,-68.08,22.3761311,120.1596756,0.08,16,1.8,0,0,100,100,0.000027,0,0,0,0,3,0.011
15893,-0.5838,1.0288,10.4604,-0.2211,0.7348,-7.6904,-0.1512,0,0,-68.8,22.3761311,120.1596756,0.08,16,1.9,0,0,100,100,0.000027,0,0,0,0,3,0.011
15915,-0.8087,0.8374,9.9101,-0.2711,0.7435,-5.6763,-0.1468,0,0,-69.02,22.3761311,120.1596756,0.08,16,1.9,0,0,100,100,0.000027,0,0,0,0,3,0.011
15946,-0.4163,0.6269,9.7426,-0.2834,0.7336,-5.249,-0.1421,0,0,-69.44,22.3761311,120.1596756,0.08,16,1.9,0,0,100,100,0.000027,0,0,0,0,3,0.011
15968,-0.3828,0.6173,9.8096,-0.2919,0.7237,-4.6387,-0.1369,0,0,-69.62,22.3761311,120.1596756,0.08,16,1.9,0,0,100,100,0.000027,0,0,0,0,3,0.011
16000,-0.5838,0.268,9.489,-0.3167,0.685,1.2817,-0.1234,0,0,-69.71,22.3761311,120.1596756,0.08,16,1.9,0,0,100,100,0.000027,0,0,0,0,3,0.011
16022,-0.4881,0.201,9.4172,-0.3312,0.6438,3.54,-0.1076,0,0,-69.62,22.3761311,120.1596756,0.08,16,1.9,0,0,100,100,0.000027,0,0,0,0,3,0.011
16043,-0.4689,-0.0191,9.4124,-0.3429,0.5875,5.7983,-0.0899,0,0,-69.46,22.3761311,120.1596756,0.08,16,1.9,0,0,100,100,0.000027,0,0,0,0,3,0.011
16075,-0.3397,0.0574,9.2354,-0.3427,0.5424,14.5264,-0.0607,0,0,-68.67,22.3761311,120.1596756,0.08,16,1.9,0,0,100,100,0.000027,0,0,0,0,3,0.011
16105,-0.8183,-0.2058,9.0918,-0.3831,0.4788,16.0522,-0.0317,0,0,-67.76,22.3761311,120.159668,0.08,20,1.7,0,0,100,100,0.000027,0,0,0,0,3,0.011
16127,-0.5407,-0.1292,9.2306,-0.3965,0.4271,13.3667,-0.0092,0,0,-67.25,22.3761311,120.159668,0.08,20,1.7,0,0,100,100,0.000027,0,0,0,0,3,0.011
16158,-0.5981,-0.0813,9.1636,-0.4136,0.3839,13.2446,0.0112,0,0,-66.52,22.3761311,120.159668,0.08,20,1.7,0,0,100,100,0.000027,0,0,0,0,3,0.011
16180,-0.7417,-0.2153,8.8525,-0.4415,0.333,12.0239,0.0281,0,0,-66.06,22.3761311,120.159668,0.08,20,1.7,0,0,100,100,0.000027,0,0,0,0,3,0.011
16212,-0.3397,-0.2488,9.3215,-0.4329,0.2835,6.0425,0.0347,0,0,-65.56,22.3761311,120.159668,0.08,20,1.7,0,0,100,100,0.000027,0,0,0,0,3,0.011
16234,-0.2393,0.445,9.0487,-0.4164,0.2973,3.8452,0.0374,0,0,-65.23,22.3761311,120.159668,0.08,20,1.7,0,0,100,100,0.000027,0,0,0,0,3,0.011
16255,0.1101,-0.201,9.6756,-0.3717,0.2549,2.9907,0.0387,0,0,-65.12,22.3761311,120.159668,0.08,20,1.7,0,0,100,100,0.000027,0,0,0,0,3,0.011
16287,-0.3876,-0.1962,9.3167,-0.373,0.2166,0.9155,0.0368,0,0,-65.03,22.3761311,120.159668,0.08,20,1.7,0,0,100,100,0.000027,0,0,0,0,3,0.011
16317,-0.1771,-0.1914,9.0822,-0.3564,0.1819,-4.0894,0.0276,0,0,-65.17,22.3761292,120.159668,0.08,20,1.7,0,0,100,100,0.000027,0,0,0,0,3,0.011
16339,0.0622,-0.311,9.3167,-0.3208,0.14,-5.4321,0.0172,0,0,-65.36,22.3761292,120.159668,0.08,20,1.7,0,0,100,100,0.000027,0,0,0,0,3,0.011
16360,0.1483,-0.3685,9.3071,-0.2809,0.0968,-2.6855,0.0117,0,0,-65.52,22.3761292,120.159668,0.08,20,1.7,0,0,100,100,0.000027,0,0,0,0,3,0.011
16392,-0.5024,-0.0335,8.1348,-0.2997,0.0857,0.2441,0.0111,0,0,-65.45,22.3761292,120.159668,0.08,20,1.7,0,0,100,100,0.000027,0,0,0,0,3,0.011
16414,-0.3206,-0.78,8.7281,-0.3015,0,-5.127,0.0025,0,0,-65.58,22.3761292,120.159668,0.08,20,1.7,0,0,100,100,0.000027,0,0,0,0,3,0.011
16435,-0.7417,-1.0527,8.8956,-0.3389,-0.0784,-13.916,-0.0183,0,0,-66.02,22.3761292,120.159668,0.08,20,1.7,0,0,100,100,0.000027,0,0,0,0,3,0.011
16467,0.1579,-0.8661,8.9865,-0.2967,-0.1454,-14.5874,-0.0384,0,0,-66.9,22.3761292,120.159668,0.08,20,1.7,0,0,100,100,0.000027,0,0,0,0,3,0.011
16489,0,-0.9427,8.8334,-0.2715,-0.2131,-7.5684,-0.0464,0,0,-67.27,22.3761292,120.159668,0.08,20,1.7,0,0,100,100,0.000027,0,0,0,0,3,0.011
16529,-0.2297,-1.0145,8.8765,-0.2679,-0.2812,-2.5635,-0.0462,0,0,-67.61,22.3761292,120.159668,0.09,20,1.7,0,0,100,100,0.000027,0,0,0,0,3,0.011
16551,-0.5072,-1.0049,8.7951,-0.2883,-0.3427,-1.709,-0.0448,0,0,-67.69,22.3761292,120.159668,0.09,20,1.7,0,0,100,100,0.000027,0,0,0,0,3,0.011
16583,-0.6125,-0.8805,8.7186,-0.3158,-0.3885,-0.5493,-0.0418,0,0,-67.79,22.3761292,120.159668,0.09,20,1.7,0,0,100,100,0.000027,0,0,0,0,3,0.011
16604,-0.8087,-0.8087,8.6229,-0.3577,-0.4242,1.2817,-0.0364,0,0,-67.75,22.3761292,120.159668,0.09,20,1.7,0,0,100,100,0.000027,0,0,0,0,3,0.011
16636,-0.9618,-0.8565,8.7664,-0.4091,-0.4609,1.1597,-0.0316,0,0,-67.69,22.3761292,120.159668,0.09,20,1.7,0,0,100,100,0.000027,0,0,0,0,3,0.011
16658,-1.0049,-0.9379,8.9482,-0.4597,-0.5015,0.3662,-0.0283,0,0,-67.67,22.3761292,120.159668,0.09,20,1.7,0,0,100,100,0.000027,0,0,0,0,3,0.011
16690,-1.1389,-0.8135,9.1205,-0.5174,-0.528,1.709,-0.0234,0,0,-67.61,22.3761292,120.159668,0.09,20,1.7,0,0,100,100,0.000027,0,0,0,0,3,0.011
16720,-1.3446,-0.7656,9.288,-0.5878,-0.5482,-0.1831,-0.0217,0,0,-67.55,22.3761292,120.159668,0.09,20,1.7,0,0,100,100,0.000027,0,0,0,0,3,0.011
16741,-1.1245,-0.7321,9.5129,-0.6334,-0.5638,-3.2959,-0.0247,0,0,-67.67,22.3761292,120.159668,0.09,20,1.7,0,0,100,100,0.000027,0,0,0,0,3,0.011
16773,-0.7943,-0.5838,9.8335,-0.6471,-0.5655,-2.6855,-0.0266,0,0,-67.84,22.3761292,120.159668,0.09,20,1.7,0,0,100,100,0.000027,0,0,0,0,3,0.011
16795,-0.6269,-0.5694,10.1732,-0.6453,-0.5659,-1.5259,-0.0266,0,0,-67.91,22.3761292,120.159668,0.09,20,1.7,0,0,100,100,0.000027,0,0,0,0,3,0.011
16827,-0.823,-0.445,10.446,-0.6604,-0.5556,-2.3193,-0.0278,0,0,-67.99,22.3761292,120.159668,0.09,20,1.7,0,0,100,100,0.000027,0,0,0,0,3,0.011
16849,-0.5838,-0.3685,10.6518,-0.6539,-0.5397,-1.77,-0.0281,0,0,-68.08,22.3761292,120.159668,0.09,20,1.7,0,0,100,100,0.000027,0,0,0,0,3,0.011
16881,-0.4929,-0.5312,10.7762,-0.6402,-0.539,4.6387,-0.0188,0,0,-67.96,22.3761292,120.159668,0.09,20,1.7,0,0,100,100,0.000027,0,0,0,0,3,0.011
16902,-0.4977,-0.5312,10.7475,-0.6281,-0.5383,7.5684,-0.006,0,0,-67.71,22.3761292,120.159668,0.09,20,1.7,0,0,100,100,0.000027,0,0,0,0,3,0.011
16942,-0.4833,-0.1244,10.714,-0.6158,-0.5031,5.7373,0.0031,0,0,-67.13,22.3761272,120.159668,0.1,19,1.6,0,0,100,100,0.000027,0,0,0,0,3,0.011
16964,-0.2345,-0.1244,10.7762,-0.5834,-0.4709,-1.1597,0.0011,0,0,-67.11,22.3761272,120.159668,0.1,19,1.6,0,0,100,100,0.000027,0,0,0,0,3,0.011
16996,0.2297,0.1292,10.647,-0.5143,-0.4199,-4.7607,-0.0061,0,0,-67.38,22.3761272,120.159668,0.1,19,1.6,0,0,100,100,0.000027,0,0,0,0,3,0.011
17018,0.3924,0.1866,10.5465,-0.4372,-0.3684,-0.5493,-0.0064,0,0,-67.49,22.3761272,120.159668,0.1,19,1.6,0,0,100,100,0.000027,0,0,0,0,3,0.011
17050,-0.1818,0.1771,9.7952,-0.4155,-0.322,5.3711,0.0021,0,0,-67.32,22.3761272,120.159668,0.1,19,1.6,0,0,100,100,0.000027,0,0,0,0,3,0.011
17071,-0.7226,0.1627,9.1109,-0.4416,-0.2808,-0.1831,0.0017,0,0,-67.18,22.3761272,120.159668,0.1,19,1.6,0,0,100,100,0.000027,0,0,0,0,3,0.011
17093,-0.1101,0.3732,9.1396,-0.4134,-0.2252,-9.2773,-0.0122,0,0,-67.44,22.3761272,120.159668,0.1,19,1.6,0,0,100,100,0.000027,0,0,0,0,3,0.011
17125,0.2584,0.6508,9.0344,-0.3563,-0.1507,-10.2539,-0.0264,0,0,-68.07,22.3761272,120.159668,0.1,19,1.6,0,0,100,100,0.000027,0,0,0,0,3,0.011
17155,0.1962,0.5072,8.977,-0.3094,-0.0948,-10.0708,-0.0391,0,0,-68.59,22.3761272,120.159668,0.11,19,1.6,0,0,100,100,0.000027,0,0,0,0,3,0.011
17176,0.1244,0.4067,8.6803,-0.2725,-0.0522,-12.9395,-0.055,0,0,-69.01,22.3761272,120.159668,0.11,19,1.6,0,0,100,100,0.000027,0,0,0,0,3,0.011
17208,0.4977,0.3302,8.8573,-0.207,0,-9.7046,-0.0647,0,0,-69.69,22.3761272,120.159668,0.11,19,1.6,0,0,100,100,0.000027,0,0,0,0,3,0.011
17230,0.1005,0.1771,8.7951,-0.1809,0,-4.1504,-0.0654,0,0,-70.02,22.3761272,120.159668,0.11,19,1.6,0,0,100,100,0.000027,0,0,0,0,3,0.011
17251,-0.1723,-0.0144,8.7138,-0.1802,0,-3.418,-0.0649,0,0,-70.15,22.3761272,120.159668,0.11,19,1.6,0,0,100,100,0.000027,0,0,0,0,3,0.011
17283,-0.1771,0.1531,9.0679,-0.1799,0,-1.8921,-0.0622,0,0,-70.3,22.3761272,120.159668,0.11,19,1.6,0,0,100,100,0.000027,0,0,0,0,3,0.011
17305,-0.5216,0.2249,8.9961,-0.2089,0,0.7324,-0.0558,0,0,-70.31,22.3761272,120.159668,0.11,19,1.6,0,0,100,100,0.000027,0,0,0,0,3,0.011
17327,-0.5503,0.1101,9.0918,-0.2379,0,-0.5493,-0.0519,0,0,-70.29,22.3761272,120.159668,0.11,19,1.6,0,0,100,100,0.000027,0,0,0,0,3,0.011
17367,-0.5024,0.1196,9.3502,-0.2604,0,0.2441,-0.0471,0,0,-70.42,22.3761272,120.159668,0.12,20,1.7,0,0,100,100,0.000027,0,0,0,0,3,0.011
17388,-0.7321,0.0335,9.4363,-0.3005,0,5.4932,-0.0349,0,0,-70.21,22.3761272,120.159668,0.12,20,1.7,0,0,100,100,0.000027,0,0,0,0,3,0.011
17410,-1.0862,-0.0383,9.4411,-0.3673,0,3.9062,-0.0262,0,0,-70.04,22.3761272,120.159668,0.12,20,1.7,0,0,100,100,0.000027,0,0,0,0,3,0.011
17442,-0.5312,-0.0383,9.7617,-0.3812,0,3.3569,-0.019,0,0,-69.88,22.3761272,120.159668,0.12,20,1.7,0,0,100,100,0.000027,0,0,0,0,3,0.011
17464,-0.402,-0.1244,9.9914,-0.383,0,7.2021,-0.0067,0,0,-69.67,22.3761272,120.159668,0.12,20,1.7,0,0,100,100,0.000027,0,0,0,0,3,0.011
17496,-0.4307,-0.1436,10.2546,-0.387,0,6.0425,0.0029,0,0,-69.29,22.3761272,120.159668,0.12,20,1.7,0,0,100,100,0.000027,0,0,0,0,3,0.011
17517,-0.1818,-0.1962,10.3934,-0.3696,0,7.6904,0.014,0,0,-69.05,22.3761272,120.159668,0.12,20,1.7,0,0,100,100,0.000027,0,0,0,0,3,0.011
17549,0.134,0.1244,10.4125,-0.3268,0,18.1274,0.0397,0,0,-68.07,22.3761272,120.159668,0.12,20,1.7,0,0,100,100,0.000027,0,0,0,0,3,0.011
17579,-0.0144,-0.4211,10.7618,-0.3002,0,13.6108,0.0565,0,0,-67.15,22.3761272,120.159668,0.14,20,1.7,0,0,100,100,0.000027,0,0,0,0,3,0.011
17600,0.3876,-0.4881,10.9149,-0.2418,-0.0769,6.2256,0.061,0,0,-66.87,22.3761272,120.159668,0.14,20,1.7,0,0,100,100,0.000027,0,0,0,0,3,0.011
17632,0.8087,-0.1675,10.5417,-0.1525,-0.0846,10.498,0.0714,0,0,-66.48,22.3761272,120.159668,0.14,20,1.7,0,0,100,100,0.000027,0,0,0,0,3,0.011
17654,0.7369,-0.2058,10.2354,-0.0769,-0.0949,15.2588,0.0879,0,0,-66,22.3761272,120.159668,0.14,20,1.7,0,0,100,100,0.000027,0,0,0,0,3,0.011
17686,0.2058,-0.244,9.7761,-0.0529,-0.1076,15.0757,0.1028,0,0,-65.11,22.3761272,120.159668,0.14,20,1.7,0,0,100,100,0.000027,0,0,0,0,3,0.011
17707,0,-0.3732,9.4794,0,-0.1302,6.2866,0.1034,0,0,-64.72,22.3761272,120.159668,0.14,20,1.7,0,0,100,100,0.000027,0,0,0,0,3,0.011
17729,0.3445,-0.1866,9.2114,0,-0.135,-1.77,0.092,0,0,-64.69,22.3761272,120.159668,0.14,20,1.7,0,0,100,100,0.000027,0,0,0,0,3,0.011
17761,1.024,0.1292,9.422,0.0733,-0.1125,5.3711,0.0921,0,0,-64.58,22.3761272,120.159668,0.14,20,1.7,0,0,100,100,0.000027,0,0,0,0,3,0.011
17791,0.3972,-0.1388,9.4028,0.1009,-0.1147,9.5215,0.0984,0,0,-64.06,22.3761272,120.159668,0.17,20,1.7,0,0,100,100,0.000027,0,0,0,0,3,0.011
17812,0.0144,-0.1914,9.1875,0.0935,-0.1212,6.2866,0.0994,0,0,-63.78,22.3761272,120.159668,0.17,20,1.7,0,0,100,100,0.000027,0,0,0,0,3,0.011
17834,0.0813,-0.1818,9.1444,0.0925,-0.1264,5.188,0.0986,0,0,-63.58,22.3761272,120.159668,0.17,20,1.7,0,0,100,100,0.000027,0,0,0,0,3,0.011
17866,-0.0048,-0.2105,9.2258,0.0842,-0.1336,3.54,0.0955,0,0,-63.33,22.3761272,120.159668,0.17,20,1.7,0,0,100,100,0.000027,0,0,0,0,3,0.011
17888,-0.1675,-0.1866,9.1636,0.0628,-0.1381,1.0986,0.089,0,0,-63.22,22.3761272,120.159668,0.17,20,1.7,0,0,100,100,0.000027,0,0,0,0,3,0.011
17909,-0.1101,-0.067,9.2928,0,-0.132,0.2441,0.0818,0,0,-63.2,22.3761272,120.159668,0.17,20,1.7,0,0,100,100,0.000027,0,0,0,0,3,0.011
17941,-0.7369,-0.0718,9.1349,0,-0.1269,-2.5635,0.0711,0,0,-63.23,22.3761272,120.159668,0.17,20,1.7,0,0,100,100,0.000027,0,0,0,0,3,0.011
17963,-0.5503,-0.1053,9.0104,-0.0638,-0.1251,-5.5542,0.0568,0,0,-63.38,22.3761272,120.159668,0.17,20,1.7,0,0,100,100,0.000027,0,0,0,0,3,0.011
18003,-0.1101,-0.1292,9.6612,-0.0677,-0.1254,-5.9204,0.0432,0,0,-63.86,22.3761292,120.159668,0.2,20,1.7,0,0,100,100,0.000027,0,0,0,0,3,0.011
18025,-0.244,-0.0718,10.0728,-0.0827,-0.1209,-4.2725,0.0332,0,0,-64.04,22.3761292,120.159668,0.2,20,1.7,0,0,100,100,0.000027,0,0,0,0,3,0.011
18057,-0.8183,-0.2297,9.867,-0.1452,-0.1301,-11.5356,0.0132,0,0,-64.6,22.3761292,120.159668,0.2,20,1.7,0,0,100,100,0.000027,0,0,0,0,3,0.011
18078,-0.0144,-0.3445,9.8526,-0.1341,-0.1483,-14.1602,-0.0089,0,0,-65.11,22.3761292,120.159668,0.2,20,1.7,0,0,100,100,0.000027,0,0,0,0,3,0.011
18110,-0.3732,-0.3589,10.3455,-0.1544,-0.1662,-8.8501,-0.0213,0,0,-65.7,22.3761292,120.159668,0.2,20,1.7,0,0,100,100,0.000027,0,0,0,0,3,0.011
18132,-0.8039,-0.2919,10.5704,-0.2096,-0.1769,-11.1084,-0.0359,0,0,-66.05,22.3761292,120.159668,0.2,20,1.7,0,0,100,100,0.000027,0,0,0,0,3,0.011
18164,-0.1579,-0.1148,11.159,-0.2052,-0.1716,-15.0757,-0.0553,0,0,-66.78,22.3761292,120.159668,0.2,20,1.7,0,0,100,100,0.000027,0,0,0,0,3,0.011
18194,0.1436,-0.4402,10.6613,-0.1756,-0.1945,-15.686,-0.0738,0,0,-67.61,22.3761272,120.159668,0.23,20,1.7,0,0,100,100,0.000027,0,0,0,0,3,0.011
18215,-0.0239,-0.1627,10.6805,-0.1627,-0.1918,-16.4185,-0.0919,0,0,-68.49,22.3761272,120.159668,0.23,20,1.7,0,0,100,100,0.000027,0,0,0,0,3,0.011
18247,0.0718,-0.0622,10.5513,-0.1428,-0.1808,-16.8457,-0.1091,0,0,-69.41,22.3761272,120.159668,0.23,20,1.7,0,0,100,100,0.000027,0,0,0,0,3,0.011
18269,0.3158,0.0239,10.2115,-0.1038,-0.1634,-13.3057,-0.1196,0,0,-69.94,22.3761272,120.159668,0.23,20,1.7,0,0,100,100,0.000027,0,0,0,0,3,0.011
18301,0.3972,0.2632,10.1254,-0.0612,-0.1271,-4.1504,-0.1156,0,0,-70.35,22.3761272,120.159668,0.23,20,1.7,0,0,100,100,0.000027,0,0,0,0,3,0.011
18323,0.2488,0.2058,10.0345,0,-0.0988,-3.9062,-0.1115,0,0,-70.49,22.3761272,120.159668,0.23,20,1.7,0,0,100,100,0.000027,0,0,0,0,3,0.011
18355,0.6364,0.3445,9.532,0,-0.0611,-7.3853,-0.113,0,0,-70.94,22.3761272,120.159668,0.23,20,1.7,0,0,100,100,0.000027,0,0,0,0,3,0.011
18376,0.6508,0.3732,9.3023,0.0756,0,-7.6294,-0.1147,0,0,-71.22,22.3761272,120.159668,0.23,20,1.7,0,0,100,100,0.000027,0,0,0,0,3,0.011
18406,0.5312,0.2105,9.1492,0.1143,0,-7.8735,-0.1166,0,0,-71.64,22.3761272,120.159668,0.26,20,1.7,0,0,100,100,0.000027,0,0,0,0,3,0.011
18427,0.4689,0.0479,8.9674,0.1445,0,-7.8735,-0.1184,0,0,-71.93,22.3761272,120.159668,0.26,20,1.7,0,0,100,100,0.000027,0,0,0,0,3,0.011
18449,0.0048,-0.1244,8.5224,0.1326,0,-9.3994,-0.1223,0,0,-72.24,22.3761272,120.159668,0.26,20,1.7,0,0,100,100,0.000027,0,0,0,0,3,0.011
18481,0.1723,-0.0096,8.5846,0.136,0,-8.1177,-0.1239,0,0,-72.77,22.3761272,120.159668,0.26,20,1.7,0,0,100,100,0.000027,0,0,0,0,3,0.011
18503,0.2297,0.0335,8.9339,0.1439,0,-0.061,-0.1135,0,0,-72.92,22.3761272,120.159668,0.26,20,1.7,0,0,100,100,0.000027,0,0,0,0,3,0.011
18524,-0.1723,-0.1053,8.9435,0.1171,0,5.8594,-0.0952,0,0,-72.7,22.3761272,120.159668,0.26,20,1.7,0,0,100,100,0.000027,0,0,0,0,3,0.011
18556,-0.311,-0.1292,8.9435,0.0807,0,4.4556,-0.0805,0,0,-72.42,22.3761272,120.159668,0.26,20,1.7,0,0,100,100,0.000027,0,0,0,0,3,0.011
18578,-0.1388,-0.0431,8.91,0.062,0,7.5073,-0.0625,0,0,-72.21,22.3761272,120.159668,0.26,20,1.7,0,0,100,100,0.000027,0,0,0,0,3,0.011
18608,-1.5169,0.3972,9.9196,-0.0722,0,8.1177,-0.0451,0,0,-71.71,22.3761272,120.159668,0.29,20,1.7,0,0,100,100,0.000027,0,0,0,0,3,0.011
18629,-2.2251,0.7656,10.6422,-0.2552,0.074,0.061,-0.0412,0,0,-71.56,22.3761272,120.159668,0.29,20,1.7,0,0,100,100,0.000027,0,0,0,0,3,0.011
18651,-1.6509,0.8853,10.8145,-0.3738,0.1429,-3.0518,-0.0422,0,0,-71.64,22.3761272,120.159668,0.29,20,1.7,0,0,100,100,0.000027,0,0,0,0,3,0.011
18683,-0.6795,0.0335,10.5369,-0.3998,0.1336,7.7515,-0.0271,0,0,-71.4,22.3761272,120.159668,0.29,20,1.7,0,0,100,100,0.000027,0,0,0,0,3,0.011
18705,-0.5981,-0.4259,10.2067,-0.4167,0.0861,7.2632,-0.0141,0,0,-71.12,22.3761272,120.159668,0.29,20,1.7,0,0,100,100,0.000027,0,0,0,0,3,0.011
18737,0.1196,-0.5886,10.4556,-0.3711,0,8.3008,-0.0005,0,0,-70.73,22.3761272,120.159668,0.29,20,1.7,0,0,100,100,0.000027,0,0,0,0,3,0.011
18758,0.0622,-0.4259,10.9197,-0.3342,0,16.2964,0.0237,0,0,-70.26,22.3761272,120.159668,0.29,20,1.7,0,0,100,100,0.000027,0,0,0,0,3,0.011
18780,-0.4498,-0.2058,10.9819,-0.3441,0,23.1934,0.0561,0,0,-69.52,22.3761272,120.159668,0.29,20,1.7,0,0,100,100,0.000027,0,0,0,0,3,0.011
18820,-0.402,-0.5694,10.6087,-0.349,-0.0727,15.8691,0.0748,0,0,-67.9,22.3761272,120.159668,0.32,20,1.7,0,0,100,100,0.000027,0,0,0,0,3,0.011
18842,0.4881,-0.9188,10.6374,-0.2778,-0.1446,11.1694,0.0851,0,0,-67.24,22.3761272,120.159668,0.32,20,1.7,0,0,100,100,0.000027,0,0,0,0,3,0.011
18874,0.4929,-0.2488,10.4938,-0.2123,-0.1535,13.3057,0.0976,0,0,-66.54,22.3761272,120.159668,0.32,20,1.7,0,0,100,100,0.000027,0,0,0,0,3,0.011
18895,0.3828,0.1101,10.1685,-0.1617,-0.1311,13.1226,0.1087,0,0,-66.06,22.3761272,120.159668,0.32,20,1.7,0,0,100,100,0.000027,0,0,0,0,3,0.011
18927,1.0001,0.1148,9.3119,-0.063,-0.1102,15.0146,0.1218,0,0,-65.3,22.3761272,120.159668,0.32,20,1.7,0,0,100,100,0.000027,0,0,0,0,3,0.011
18949,1.158,-0.1723,9.0918,0,-0.1155,16.9678,0.1366,0,0,-64.72,22.3761272,120.159668,0.32,20,1.7,0,0,100,100,0.000027,0,0,0,0,3,0.011
18970,0.981,-0.1531,9.0057,0.1207,-0.1187,18.3105,0.1521,0,0,-64.07,22.3761272,120.159668,0.32,20,1.7,0,0,100,100,0.000027,0,0,0,0,3,0.011
19002,0.4737,0.0335,8.9004,0.1507,-0.1057,22.4609,0.1725,0,0,-62.6,22.3761272,120.159668,0.32,20,1.7,0,0,100,100,0.000027,0,0,0,0,3,0.011
19032,-0.2105,0,8.5032,0.12,-0.0967,23.2544,0.1924,0,0,-61.31,22.3761272,120.1596756,0.36,20,1.7,0,0,100,100,0.000027,0,0,0,0,3,0.011
19054,-0.4163,-0.134,8.4984,0.0744,-0.0999,20.813,0.2069,0,0,-60.53,22.3761272,120.1596756,0.36,20,1.7,0,0,100,100,0.000027,0,0,0,0,3,0.011
19075,-0.2728,-0.3254,8.5511,0,-0.1191,16.1133,0.2132,0,0,-59.9,22.3761272,120.1596756,0.36,20,1.7,0,0,100,100,0.000027,0,0,0,0,3,0.011
19107,0.0096,-0.3063,8.9339,0,-0.135,12.0239,0.2129,0,0,-59.18,22.3761272,120.1596756,0.36,20,1.7,0,0,100,100,0.000027,0,0,0,0,3,0.011
19129,-0.1388,-0.1962,9.0822,0,-0.1402,10.8643,0.2109,0,0,-58.76,22.3761272,120.1596756,0.36,20,1.7,0,0,100,100,0.000027,0,0,0,0,3,0.011
19151,-0.1771,-0.0622,9.1923,0,-0.1336,10.3149,0.2083,0,0,-58.2,22.3761272,120.1596756,0.36,20,1.7,0,0,100,100,0.000027,0,0,0,0,3,0.011
19182,-0.3063,0.0096,9.465,0,-0.1214,9.0942,0.2041,0,0,-57.66,22.3761272,120.1596756,0.36,20,1.7,0,0,100,100,0.000027,0,0,0,0,3,0.011
19204,-0.4689,0.0861,9.7234,-0.0559,-0.1037,7.9956,0.1986,0,0,-57.36,22.3761272,120.1596756,0.36,20,1.7,0,0,100,100,0.000027,0,0,0,0,3,0.011
19234,-0.4785,0.1818,10.3407,-0.0919,-0.0795,4.2114,0.188,0,0,-57.06,22.3761272,120.1596756,0.39,20,1.8,0,0,100,100,0.000027,0,0,0,0,3,0.011
19255,-0.3158,0.2201,10.3407,-0.1109,-0.054,1.8921,0.1748,0,0,-56.96,22.3761272,120.1596756,0.39,20,1.8,0,0,100,100,0.000027,0,0,0,0,3,0.011
19287,-0.311,0.1579,10.6135,-0.1279,0,-2.8687,0.1557,0,0,-56.98,22.3761272,120.1596756,0.39,20,1.8,0,0,100,100,0.000027,0,0,0,0,3,0.011
19309,-0.0335,0.1005,10.8001,-0.1199,0,-5.249,0.1347,0,0,-57.14,22.3761272,120.1596756,0.39,20,1.8,0,0,100,100,0.000027,0,0,0,0,3,0.011
19341,-0.2297,0.3924,11.0824,-0.1292,0,-4.0283,0.1173,0,0,-57.45,22.3761272,120.1596756,0.39,20,1.8,0,0,100,100,0.000027,0,0,0,0,3,0.011
19362,-0.3206,0.1531,10.8958,-0.1455,0,-11.7187,0.0899,0,0,-57.8,22.3761272,120.1596756,0.39,20,1.8,0,0,100,100,0.000027,0,0,0,0,3,0.011
19394,0.4498,0.0191,10.7235,-0.0949,0,-14.5874,0.0606,0,0,-58.65,22.3761272,120.1596756,0.39,20,1.8,0,0,100,100,0.000027,0,0,0,0,3,0.011
19416,0.1866,0.0431,10.4364,-0.071,0,-9.8267,0.0409,0,0,-59.1,22.3761272,120.1596756,0.39,20,1.8,0,0,100,100,0.000027,0,0,0,0,3,0.011
19446,-0.0335,0.3397,9.6373,-0.0678,0.0513,-2.5635,0.0336,0,0,-59.42,22.3761253,120.1596756,0.42,20,1.8,0,0,100,100,0.000027,0,0,0,0,3,0.011
19468,0.3063,0.1866,9.0822,0,0.0628,-0.061,0.0307,0,0,-59.46,22.3761253,120.1596756,0.42,20,1.8,0,0,100,100,0.000027,0,0,0,0,3,0.011
19489,0.9188,0.0239,9.1636,0,0.0595,3.1128,0.0327,0,0,-59.36,22.3761253,120.1596756,0.42,20,1.8,0,0,100,100,0.000027,0,0,0,0,3,0.011
19521,1.2106,0.0574,9.1827,0.1442,0.0593,4.9438,0.0372,0,0,-59.12,22.3761253,120.1596756,0.42,20,1.8,0,0,100,100,0.000027,0,0,0,0,3,0.011
19543,0.9235,0.1914,8.9578,0.2105,0.0705,5.6152,0.0424,0,0,-58.91,22.3761253,120.1596756,0.42,20,1.8,0,0,100,100,0.000027,0,0,0,0,3,0.011
19564,0.3732,0.1771,8.5319,0.2243,0.0796,2.1973,0.0421,0,0,-58.76,22.3761253,120.1596756,0.42,20,1.8,0,0,100,100,0.000027,0,0,0,0,3,0.011
19596,0.1483,0.3302,8.4314,0.2179,0.1009,3.1738,0.0432,0,0,-58.68,22.3761253,120.1596756,0.42,20,1.8,0,0,100,100,0.000027,0,0,0,0,3,0.011
19618,-0.4067,0.4115,8.6563,0.1648,0.1273,5.6763,0.0479,0,0,-58.51,22.3761253,120.1596756,0.42,20,1.8,0,0,100,100,0.000027,0,0,0,0,3,0.011
19647,-0.4689,0.3876,8.5989,0.1109,0.1494,3.2959,0.0488,0,0,-58.25,22.3761253,120.1596756,0.45,20,1.8,0,0,100,100,0.000027,0,0,0,0,3,0.011
19669,-0.0861,0.268,8.7186,0.0942,0.1595,3.54,0.0499,0,0,-58.08,22.3761253,120.1596756,0.45,20,1.8,0,0,100,100,0.000027,0,0,0,0,3,0.011
19691,-0.1005,0.3589,9.2162,0.0776,0.1764,3.479,0.0508,0,0,-57.95,22.3761253,120.1596756,0.45,20,1.8,0,0,100,100,0.000027,0,0,0,0,3,0.011
19723,-0.5551,0.6604,9.7713,0,0.2176,1.5259,0.0487,0,0,-57.81,22.3761253,120.1596756,0.45,20,1.8,0,0,100,100,0.000027,0,0,0,0,3,0.011
19745,-0.7417,0.6699,9.7809,0,0.256,0.8545,0.0459,0,0,-57.78,22.3761253,120.1596756,0.45,20,1.8,0,0,100,100,0.000027,0,0,0,0,3,0.011
19767,-0.7991,0.5742,9.9818,-0.1057,0.2831,-0.3052,0.0415,0,0,-57.77,22.3761253,120.1596756,0.45,20,1.8,0,0,100,100,0.000027,0,0,0,0,3,0.011
19798,-0.5503,0.3254,10.3981,-0.1435,0.2867,0.9155,0.0393,0,0,-57.78,22.3761253,120.1596756,0.45,20,1.8,0,0,100,100,0.000027,0,0,0,0,3,0.011
19820,-0.4498,0.2105,10.4077,-0.1695,0.2802,3.8452,0.0417,0,0,-57.67,22.3761253,120.1596756,0.45,20,1.8,0,0,100,100,0.000027,0,0,0,0,3,0.011
19850,0.1101,-0.1675,10.9963,-0.1457,0.2421,5.127,0.0458,0,0,-57.4,22.3761234,120.1596756,0.49,20,1.8,0,0,100,100,0.000027,0,0,0,0,3,0.011
19872,0.4211,-0.2967,11.5418,-0.0976,0.1963,7.6294,0.0532,0,0,-57.16,22.3761234,120.1596756,0.49,20,1.8,0,0,100,100,0.000027,0,0,0,0,3,0.011
19893,-0.1196,-0.0766,11.7715,-0.0994,0.1732,13.3057,0.0684,0,0,-56.72,22.3761234,120.1596756,0.49,20,1.8,0,0,100,100,0.000027,0,0,0,0,3,0.011
19925,-0.1914,-0.0813,11.0346,-0.1072,0.1515,1.8311,0.0653,0,0,-56.17,22.3761234,120.1596756,0.49,20,1.8,0,0,100,100,0.000027,0,0,0,0,3,0.011
19947,1.0432,-0.6412,10.7092,0,0.0841,-4.3945,0.0532,0,0,-56.36,22.3761234,120.1596756,0.49,20,1.8,0,0,100,100,0.000027,0,0,0,0,3,0.011
19968,1.1293,-0.335,10.7379,0.0873,0,0.7324,0.0498,0,0,-56.4,22.3761234,120.1596756,0.49,20,1.8,0,0,100,100,0.000027,0,0,0,0,3,0.011
20000,0.3445,0.4977,10.6565,0.1092,0.0867,11.2915,0.0623,0,0,-55.96,22.3761234,120.1596756,0.49,20,1.8,0,0,100,100,0.000027,0,0,0,0,3,0.011
20022,0.0526,0.1148,9.532,0.1044,0.0891,10.498,0.0726,0,0,-55.52,22.3761234,120.1596756,0.49,20,1.8,0,0,100,100,0.000027,0,0,0,0,3,0.011
20052,1.0575,-0.3924,8.7042,0.1854,0,3.2349,0.0712,0,0,-55.16,22.3761234,120.1596756,0.53,19,1.8,0,0,100,100,0.000027,0,0,0,0,3,0.011
20073,1.3638,-0.2823,8.7855,0.2856,0,2.7466,0.0692,0,0,-55.06,22.3761234,120.1596756,0.53,19,1.8,0,0,100,100,0.000027,0,0,0,0,3,0.011
20095,0.7704,-0.1101,8.9291,0.3268,0,4.2725,0.0697,0,0,-54.94,22.3761234,120.1596756,0.53,19,1.8,0,0,100,100,0.000027,0,0,0,0,3,0.011
20127,-0.3302,0.2297,8.9243,0.2709,0,5.127,0.0714,0,0,-54.56,22.3761234,120.1596756,0.53,19,1.8,0,0,100,100,0.000027,0,0,0,0,3,0.011
20149,-0.3254,0.0239,8.7951,0.2202,0,4.6387,0.0722,0,0,-54.38,22.3761234,120.1596756,0.53,19,1.8,0,0,100,100,0.000027,0,0,0,0,3,0.011
20170,-0.4115,-0.2536,8.6085,0.1665,0,3.418,0.0711,0,0,-54.24,22.3761234,120.1596756,0.53,19,1.8,0,0,100,100,0.000027,0,0,0,0,3,0.011
20202,-0.1292,-0.7178,8.7712,0.1414,-0.0578,-3.9062,0.0593,0,0,-54.3,22.3761234,120.1596756,0.53,19,1.8,0,0,100,100,0.000027,0,0,0,0,3,0.011
20224,-0.0526,-0.5455,9.0727,0.1249,-0.0992,-4.1504,0.0481,0,0,-54.47,22.3761234,120.1596756,0.53,19,1.8,0,0,100,100,0.000027,0,0,0,0,3,0.011
20264,-0.4354,-0.1866,9.4698,0.0773,-0.1067,2.4414,0.0476,0,0,-54.56,22.3761215,120.1596756,0.57,19,1.8,0,0,100,100,0.000027,0,0,0,0,3,0.011
20285,-0.8518,-0.2967,9.6804,0,-0.1228,1.8921,0.0464,0,0,-54.4,22.3761215,120.1596756,0.57,19,1.8,0,0,100,100,0.000027,0,0,0,0,3,0.011
20307,-0.7178,-0.4785,9.6708,-0.0626,-0.153,-2.6855,0.0385,0,0,-54.45,22.3761215,120.1596756,0.57,19,1.8,0,0,100,100,0.000027,0,0,0,0,3,0.011
20339,-0.4307,-0.3541,10.111,-0.0938,-0.1701,-4.8828,0.0279,0,0,-54.72,22.3761215,120.1596756,0.57,19,1.8,0,0,100,100,0.000027,0,0,0,0,3,0.011
20361,-0.646,-0.2823,10.5273,-0.1408,-0.1797,-6.3477,0.0162,0,0,-54.92,22.3761215,120.1596756,0.57,19,1.8,0,0,100,100,0.000027,0,0,0,0,3,0.011
20393,-0.3158,-0.2632,10.7092,-0.1557,-0.1868,-8.9111,0.0016,0,0,-55.37,22.3761215,120.1596756,0.57,19,1.8,0,0,100,100,0.000027,0,0,0,0,3,0.011
20414,-0.067,-0.201,10.9102,-0.1481,-0.188,-4.6997,-0.0055,0,0,-55.64,22.3761215,120.1596756,0.57,19,1.8,0,0,100,100,0.000027,0,0,0,0,3,0.011
20446,-0.0909,-0.2058,11.3025,-0.1433,-0.1895,-8.0566,-0.017,0,0,-55.97,22.3761215,120.1596756,0.57,19,1.8,0,0,100,100,0.000027,0,0,0,0,3,0.011
20476,0.713,-0.2967,11.1494,-0.0705,-0.1986,-13.855,-0.0361,0,0,-56.7,22.3761215,120.1596756,0.61,19,1.8,0,0,100,100,0.000027,0,0,0,0,3,0.011
20498,0.4259,-0.1675,10.8288,0,-0.196,-11.8408,-0.0506,0,0,-57.15,22.3761215,120.1596756,0.61,19,1.8,0,0,100,100,0.000027,0,0,0,0,3,0.011
20530,0.4211,0.1196,10.2402,0,-0.1691,-9.8877,-0.061,0,0,-57.72,22.3761215,120.1596756,0.61,19,1.8,0,0,100,100,0.000027,0,0,0,0,3,0.011
20551,0.8853,0.0622,9.9436,0.0843,-0.1495,-7.8125,-0.0674,0,0,-58.05,22.3761215,120.1596756,0.61,19,1.8,0,0,100,100,0.000027,0,0,0,0,3,0.011
20573,1.0336,0.2345,9.6517,0.165,-0.1168,-3.6621,-0.0671,0,0,-58.26,22.3761215,120.1596756,0.61,19,1.8,0,0,100,100,0.000027,0,0,0,0,3,0.011
20605,1.0432,0.311,9.2736,0.2396,-0.0805,-2.6855,-0.0654,0,0,-58.44,22.3761215,120.1596756,0.61,19,1.8,0,0,100,100,0.000027,0,0,0,0,3,0.011
20627,1.1389,0.2632,8.977,0.3161,-0.0513,-2.7466,-0.0639,0,0,-58.55,22.3761215,120.1596756,0.61,19,1.8,0,0,100,100,0.000027,0,0,0,0,3,0.011
20648,0.9427,0.268,8.6133,0.3693,0,-0.061,-0.0586,0,0,-58.59,22.3761215,120.1596756,0.61,19,1.8,0,0,100,100,0.000027,0,0,0,0,3,0.011
20688,0.0287,0.311,8.4219,0.3404,0,3.2349,-0.0488,0,0,-58.37,22.3761196,120.1596756,0.65,19,1.8,0,0,100,100,0.000027,0,0,0,0,3,0.011
20710,-0.1771,0.0383,8.5271,0.2964,0,2.4414,-0.041,0,0,-58.26,22.3761196,120.1596756,0.65,19,1.8,0,0,100,100,0.000027,0,0,0,0,3,0.011
20732,-0.2584,-0.2153,8.6611,0.2492,0,0.7324,-0.0364,0,0,-58.21,22.3761196,120.1596756,0.65,19,1.8,0,0,100,100,0.000027,0,0,0,0,3,0.011
20764,0.0526,-0.1053,8.886,0.2325,0,0.9155,-0.032,0,0,-58.19,22.3761196,120.1596756,0.65,19,1.8,0,0,100,100,0.000027,0,0,0,0,3,0.011
20785,-0.1771,0.0957,9.0918,0.1977,0,4.5776,-0.0225,0,0,-58.05,22.3761196,120.1596756,0.65,19,1.8,0,0,100,100,0.000027,0,0,0,0,3,0.011
20807,-0.5838,0.311,9.4028,0.1313,0,6.2256,-0.0113,0,0,-57.83,22.3761196,120.1596756,0.65,19,1.8,0,0,100,100,0.000027,0,0,0,0,3,0.011
20839,-0.6747,0.3924,9.6947,0.0628,0,7.5684,0.0009,0,0,-57.44,22.3761196,120.1596756,0.65,19,1.8,0,0,100,100,0.000027,0,0,0,0,3,0.011
20861,-0.7848,0.4067,9.7378,0,0.0797,8.1177,0.0128,0,0,-57.14,22.3761196,120.1596756,0.65,19,1.8,0,0,100,100,0.000027,0,0,0,0,3,0.011
20890,-0.5646,0.1818,10.0967,-0.0565,0.0884,6.0425,0.0207,0,0,-56.75,22.3761196,120.1596756,0.68,19,1.8,0,0,100,100,0.000027,0,0,0,0,3,0.011
20912,-0.2105,0.0144,10.2689,-0.0696,0.0821,3.9673,0.0248,0,0,-56.55,22.3761196,120.1596756,0.68,19,1.8,0,0,100,100,0.000027,0,0,0,0,3,0.011
20934,0.2488,0.1005,10.7235,0,0.0837,4.0283,0.0287,0,0,-56.35,22.3761196,120.1596756,0.68,19,1.8,0,0,100,100,0.000027,0,0,0,0,3,0.011
20965,-0.2153,0.4881,11.4078,-0.0572,0.118,7.2632,0.037,0,0,-56.01,22.3761196,120.1596756,0.68,19,1.8,0,0,100,100,0.000027,0,0,0,0,3,0.011
20987,-0.2728,0.3541,10.8145,-0.0755,0.1381,-1.5869,0.0315,0,0,-55.89,22.3761196,120.1596756,0.68,19,1.8,0,0,100,100,0.000027,0,0,0,0,3,0.011
21019,0.9905,-0.7034,10.8479,0,0.0666,-8.3008,0.0165,0,0,-56.28,22.3761196,120.1596756,0.68,19,1.8,0,0,100,100,0.000027,0,0,0,0,3,0.011
21041,0.847,-0.2249,11.1829,0.0858,0,-3.9062,0.0093,0,0,-56.51,22.3761196,120.1596756,0.68,19,1.8,0,0,100,100,0.000027,0,0,0,0,3,0.011
21062,0.2919,0.4785,11.3121,0.1033,0.0789,0.8545,0.0098,0,0,-56.56,22.3761196,120.1596756,0.68,19,1.8,0,0,100,100,0.000027,0,0,0,0,3,0.011
21102,0.4067,-0.2967,9.6852,0.1291,0,5.249,0.0168,0,0,-56.21,22.3761177,120.1596756,0.71,19,1.8,0,0,100,100,0.000027,0,0,0,0,3,0.011
21124,0.6843,-0.5742,9.1492,0.1763,0,3.418,0.0204,0,0,-56.07,22.3761177,120.1596756,0.71,19,1.8,0,0,100,100,0.000027,0,0,0,0,3,0.011
21145,1.1006,-0.4737,8.8382,0.2549,0,2.1362,0.0218,0,0,-55.98,22.3761177,120.1596756,0.71,19,1.8,0,0,100,100,0.000027,0,0,0,0,3,0.011
21178,0.5742,-0.1388,8.8478,0.282,-0.0535,6.5918,0.0298,0,0,-55.75,22.3761177,120.1596756,0.71,19,1.8,0,0,100,100,0.000027,0,0,0,0,3,0.011
21199,-0.0287,-0.1053,8.7521,0.2556,-0.0579,6.2256,0.0365,0,0,-55.5,22.3761177,120.1596756,0.71,19,1.8,0,0,100,100,0.000027,0,0,0,0,3,0.011
21231,-0.2967,-0.2297,8.6611,0.2087,-0.0725,2.2583,0.0367,0,0,-55.19,22.3761177,120.1596756,0.71,19,1.8,0,0,100,100,0.000027,0,0,0,0,3,0.011
21253,-0.1531,-0.3924,8.7712,0.1779,-0.0997,-0.2441,0.0332,0,0,-55.18,22.3761177,120.1596756,0.71,19,1.8,0,0,100,100,0.000027,0,0,0,0,3,0.011
21274,0.0574,-0.4259,8.9147,0.1677,-0.1274,-0.4883,0.0297,0,0,-55.2,22.3761177,120.1596756,0.71,19,1.8,0,0,100,100,0.000027,0,0,0,0,3,0.011
21314,-0.3206,-0.2632,9.2928,0.1262,-0.139,0.2441,0.0275,0,0,-55.17,22.3761177,120.1596756,0.73,20,1.8,0,0,100,100,0.000027,0,0,0,0,3,0.011
21336,-0.3876,-0.2297,9.355,0.0825,-0.1467,1.0986,0.0268,0,0,-55.14,22.3761177,120.1596756,0.73,20,1.8,0,0,100,100,0.000027,0,0,0,0,3,0.011
