Timestamp_ms,Raw_Accel_X,Raw_Accel_Y,Raw_Accel_Z,Unbiased_Filt_Accel_X,Unbiased_Filt_Accel_Y,Raw_Omega_Z_degs,Unbiased_Omega_Z_rads,IMU_Roll_deg,IMU_Pitch_deg,IMU_Yaw_deg,GPS_Lat,GPS_Lon,GPS_GroundSpeed_kmh,GPS_Satellites,GPS_HDOP,GPS_Local_X_m,GPS_Local_Y_m,R_delta_pos_X,R_delta_pos_Y,Q_av,Q_q,Q_ba,Q_bg,ZUPT_Actived,EKF_Status,Delta_T_s
10,0.0048,0.0335,9.7187,0,0,0,0,0,0,-179,22.3761292,120.159729,0,12,3.4,0,0,100,100,0.000027,0,0,0,0,3,0.011
53,0,-0.0144,9.7713,0,0,0,0,0,0,-179,22.376133,120.1596909,0,13,2.7,0,0,100,100,0.000027,0,0,0,0,3,0.011
88,-0.0191,-0.0574,9.8383,0,0,0,0,0,0,-179,22.376133,120.1596909,0,13,2.7,0,0,100,100,0.000027,0,0,0,0,3,0.011
123,0.0144,-0.0048,9.8048,0,0,0,0,0,0,-179,22.376133,120.1596909,0,13,2.7,0,0,100,100,0.000027,0,0,0,0,3,0.011
157,0.0048,0.0574,9.7187,0,0,0,0,0,0,-179,22.376133,120.1596909,0,13,2.7,0,0,100,100,0.000027,0,0,0,0,3,0.011
192,-0.0144,-0.0239,9.7713,0,0,0,0,0,0,-179,22.376133,120.1596909,0,13,2.7,0,0,100,100,0.000027,0,0,0,0,3,0.011
227,-0.0144,-0.0431,9.8048,0,0,0,0,0,0,-179,22.376133,120.1596909,0,13,2.7,0,0,100,100,0.000027,0,0,0,0,3,0.011
269,-0.0239,0.0287,9.7378,0,0,0,0,0,0,-179,22.376133,120.1596832,0.01,15,2.3,0,0,100,100,0.000027,0,0,0,0,3,0.011
304,-0.0239,-0.0526,9.8431,0,0,0,0,0,0,-179,22.376133,120.1596832,0.01,15,2.3,0,0,100,100,0.000027,0,0,0,0,3,0.011
339,0.0287,-0.0239,9.8526,0,0,0,0,0,0,-179,22.376133,120.1596832,0.01,15,2.3,0,0,100,100,0.000027,0,0,0,0,3,0.011
373,0,0.0383,9.7139,0,0,0,0,0,0,-179,22.376133,120.1596832,0.01,15,2.3,0,0,100,100,0.000027,0,0,0,0,3,0.011
408,-0.0144,-0.0144,9.7521,0,0,0,0,0,0,-179,22.376133,120.1596832,0.01,15,2.3,0,0,100,100,0.000027,0,0,0,0,3,0.011
443,-0.0239,-0.0239,9.8144,0,0,0,0,0,0,-179,22.376133,120.1596832,0.01,15,2.3,0,0,100,100,0.000027,0,0,0,0,3,0.011
485,-0.0191,-0.0048,9.7569,0,0,0,0,0,0,-179,22.376133,120.1596832,0.01,15,2.3,0,0,100,100,0.000027,0,0,0,0,3,0.011
520,0,-0.0335,9.8144,0,0,0,0,0,0,-179,22.376133,120.1596832,0.01,15,2.3,0,0,100,100,0.000027,0,0,0,0,3,0.011
554,-0.0096,0.0096,9.8096,0,0,0,0,0,0,-179,22.376133,120.1596832,0.01,15,2.3,0,0,100,100,0.000027,0,0,0,0,3,0.011
589,0,0.0383,9.7426,0,0,0,0,0,0,-179,22.376133,120.1596832,0.01,15,2.3,0,0,100,100,0.000027,0,0,0,0,3,0.011
623,-0.0239,-0.0096,9.7761,0,0,0,0,0,0,-179,22.376133,120.1596832,0.01,15,2.3,0,0,100,100,0.000027,0,0,0,0,3,0.011
657,-0.0096,-0.0287,9.8048,0,0,0,0,0,0,-179,22.376133,120.1596832,0.01,15,2.3,0,0,100,100,0.000027,0,0,0,0,3,0.011
699,0.0287,0.0048,9.8048,0,0,0,0,0,0,-179,22.3761349,120.1596832,0.01,15,2.3,0,0,100,100,0.000027,0,0,0,0,3,0.011
733,0.0048,-0.0335,9.8239,0,0,0,0,0,0,-179,22.3761349,120.1596832,0.01,15,2.3,0,0,100,100,0.000027,0,0,0,0,3,0.011
767,0.0287,0.0144,9.7904,0,0,0,0,0,0,-179,22.3761349,120.1596832,0.01,15,2.3,0,0,100,100,0.000027,0,0,0,0,3,0.011
790,0,0.0191,9.7521,0,0,0,0,0,0,-179,22.3761349,120.1596832,0.01,15,2.3,0,0,100,100,0.000027,0,0,0,0,3,0.011
824,-0.0287,-0.0431,9.8574,0,0,0,0,0,0,-179,22.3761349,120.1596832,0.01,15,2.3,0,0,100,100,0.000027,0,0,0,0,3,0.011
847,-0.0287,-0.0383,9.7761,0,0,0,0,0,0,-179,22.3761349,120.1596832,0.01,15,2.3,0,0,100,100,0.000027,0,0,0,0,3,0.011
881,0.0096,-0.0287,9.8383,0,0,0,0,0,0,-179,22.3761349,120.1596832,0.01,15,2.3,0,0,100,100,0.000027,0,0,0,0,3,0.011
912,-0.0191,-0.0239,9.8048,0,0,0,0,0,0,-179,22.3761349,120.1596832,0.01,15,2.3,0,0,100,100,0.000027,0,0,0,0,3,0.011
933,0.0239,-0.0191,9.8431,0,0,0,0,0,0,-179,22.3761349,120.1596832,0.01,15,2.3,0,0,100,100,0.000027,0,0,0,0,3,0.011
955,0.0191,-0.0383,9.8048,0,0,0,0,0,0,-179,22.3761349,120.1596832,0.01,15,2.3,0,0,100,100,0.000027,0,0,0,0,3,0.011
987,-0.0096,-0.0383,9.7952,0,0,0,0,0,0,-179,22.3761349,120.1596832,0.01,15,2.3,0,0,100,100,0.000027,0,0,0,0,3,0.011
1008,0.0048,0,9.8335,0,0,0,0,0,0,-179,22.3761349,120.1596832,0.01,15,2.3,0,0,100,100,0.000027,0,0,0,0,3,0.011
1030,0.0191,-0.0144,9.8383,0,0,0,0,0,0,-179,22.3761349,120.1596832,0.01,15,2.3,0,0,100,100,0.000027,0,0,0,0,3,0.011
1062,-0.0096,-0.0431,9.8048,0,0,0,0,0,0,-179,22.3761349,120.1596832,0.01,15,2.3,0,0,100,100,0.000027,0,0,0,0,3,0.011
1083,0.0096,0.0191,9.8,0,0,0,0,0,0,-179,22.3761349,120.1596832,0.01,15,2.3,0,0,100,100,0.000027,0,0,0,0,3,0.011
1113,-0.0048,-0.0431,9.8526,0,0,0,0,0,0,-179,22.3761349,120.1596832,0.01,15,2.3,0,0,100,100,0.000027,0,0,0,0,3,0.011
1135,0,-0.0622,9.8239,0,0,0,0,0,0,-179,22.3761349,120.1596832,0.01,15,2.3,0,0,100,100,0.000027,0,0,0,0,3,0.011
1156,-0.0287,0.0048,9.7856,0,0,0,0,0,0,-179,22.3761349,120.1596832,0.01,15,2.3,0,0,100,100,0.000027,0,0,0,0,3,0.011
1188,-0.0048,-0.0574,9.8574,0,0,0,0,0,0,-179,22.3761349,120.1596832,0.01,15,2.3,0,0,100,100,0.000027,0,0,0,0,3,0.011
1209,0,-0.0574,9.8383,0,0,0,0,0,0,-179,22.3761349,120.1596832,0.01,15,2.3,0,0,100,100,0.000027,0,0,0,0,3,0.011
1231,0.0096,0.0191,9.7809,0,0,0,0,0,0,-179,22.3761349,120.1596832,0.01,15,2.3,0,0,100,100,0.000027,0,0,0,0,3,0.011
1263,0,-0.0287,9.8239,0,0,0,0,0,0,-179,22.3761349,120.1596832,0.01,15,2.3,0,0,100,100,0.000027,0,0,0,0,3,0.011
1285,-0.0144,-0.0239,9.8,0,0,0,0,0,0,-179,22.3761349,120.1596832,0.01,15,2.3,0,0,100,100,0.000027,0,0,0,0,3,0.011
1314,-0.0239,-0.0096,9.7474,0,0,0,0,0,0,-179,22.3761349,120.1596832,0.01,15,2.3,0,0,100,100,0.000027,0,0,0,0,3,0.011
1336,0.0048,-0.0622,9.8479,0,0,0,0,0,0,-179,22.3761349,120.1596832,0.01,15,2.3,0,0,100,100,0.000027,0,0,0,0,3,0.011
1357,-0.0239,-0.0479,9.8383,0,0,0,0,0,0,-179,22.3761349,120.1596832,0.01,15,2.3,0,0,100,100,0.000027,0,0,0,0,3,0.011
1389,0,-0.0239,9.7617,0,0,0,0,0,0,-179,22.3761349,120.1596832,0.01,15,2.3,0,0,100,100,0.000027,0,0,0,0,3,0.011
1411,-0.0096,-0.0526,9.8239,0,0,0,0,0,0,-179,22.3761349,120.1596832,0.01,15,2.3,0,0,100,100,0.000027,0,0,0,0,3,0.011
1432,0,-0.0574,9.8383,0,0,0,0,0,0,-179,22.3761349,120.1596832,0.01,15,2.3,0,0,100,100,0.000027,0,0,0,0,3,0.011
1464,0,-0.0431,9.8335,0,0,0,0,0,0,-179,22.3761349,120.1596832,0.01,15,2.3,0,0,100,100,0.000027,0,0,0,0,3,0.011
1486,0,-0.0191,9.8287,0,0,0,0,0,0,-179,22.3761349,120.1596832,0.01,15,2.3,0,0,100,100,0.000027,0,0,0,0,3,0.011
1515,-0.0239,-0.0574,9.8335,0,0,0,0,0,0,-179,22.3761349,120.1596832,0.01,15,2.3,0,0,100,100,0.000027,0,0,0,0,3,0.011
1537,-0.0144,-0.0526,9.7809,0,0,0,0,0,0,-179,22.3761349,120.1596832,0.01,15,2.3,0,0,100,100,0.000027,0,0,0,0,3,0.011
1559,-0.0096,-0.0239,9.7521,0,0,0,0,0,0,-179,22.3761349,120.1596832,0.01,15,2.3,0,0,100,100,0.000027,0,0,0,0,3,0.011
1590,0,-0.0191,9.8144,0,0,0,0,0,0,-179,22.3761349,120.1596832,0.01,15,2.3,0,0,100,100,0.000027,0,0,0,0,3,0.011
1612,-0.0048,-0.0048,9.7761,0,0,0,0,0,0,-179,22.3761349,120.1596832,0.01,15,2.3,0,0,100,100,0.000027,0,0,0,0,3,0.011
1634,0.0144,0.0335,9.7617,0,0,0,0,0,0,-179,22.3761349,120.1596832,0.01,15,2.3,0,0,100,100,0.000027,0,0,0,0,3,0.011
1665,0,-0.0526,9.8431,0,0,0,0,0,0,-179,22.3761349,120.1596832,0.01,15,2.3,0,0,100,100,0.000027,0,0,0,0,3,0.011
1687,-0.0239,-0.0191,9.8096,0,0,0,0,0,0,-179,22.3761349,120.1596832,0.01,15,2.3,0,0,100,100,0.000027,0,0,0,0,3,0.011
1717,0,0.0287,9.7234,0,0,0,0,0,0,-179,22.3761349,120.1596832,0.02,15,2.3,0,0,100,100,0.000027,0,0,0,0,3,0.011
1738,0.0239,0.0383,9.7234,0,0,0,0,0,0,-179,22.3761349,120.1596832,0.02,15,2.3,0,0,100,100,0.000027,0,0,0,0,3,0.011
1760,-0.0239,-0.0622,9.7856,0,0,0,0,0,0,-179,22.3761349,120.1596832,0.02,15,2.3,0,0,100,100,0.000027,0,0,0,0,3,0.011
1792,0,0.0191,9.7521,0,0,0,0,0,0,-179,22.3761349,120.1596832,0.02,15,2.3,0,0,100,100,0.000027,0,0,0,0,3,0.011
1813,-0.0191,-0.0096,9.8048,0,0,0,0,0,0,-179,22.3761349,120.1596832,0.02,15,2.3,0,0,100,100,0.000027,0,0,0,0,3,0.011
1835,-0.0335,-0.0287,9.8048,0,0,0,0,0,0,-179,22.3761349,120.1596832,0.02,15,2.3,0,0,100,100,0.000027,0,0,0,0,3,0.011
1867,-0.0048,0.0096,9.7713,0,0,0,0,0,0,-179,22.3761349,120.1596832,0.02,15,2.3,0,0,100,100,0.000027,0,0,0,0,3,0.011
1888,-0.0048,-0.0431,9.8526,0,0,0,0,0,0,-179,22.3761349,120.1596832,0.02,15,2.3,0,0,100,100,0.000027,0,0,0,0,3,0.011
1918,-0.0239,-0.0431,9.8,0,0,0,0,0,0,-179,22.3761349,120.1596832,0.02,15,2.3,0,0,100,100,0.000027,0,0,0,0,3,0.011
1940,0.0048,0.0144,9.7617,0,0,0,0,0,0,-179,22.3761349,120.1596832,0.02,15,2.3,0,0,100,100,0.000027,0,0,0,0,3,0.011
1961,0.0191,0.0479,9.7474,0,0,0,0,0,0,-179,22.3761349,120.1596832,0.02,15,2.3,0,0,100,100,0.000027,0,0,0,0,3,0.011
1993,-0.0239,-0.0191,9.7856,0,0,0,0,0,0,-179,22.3761349,120.1596832,0.02,15,2.3,0,0,100,100,0.000027,0,0,0,0,3,0.011
2015,-0.0048,0,9.7617,0,0,0,0,0,0,-179,22.3761349,120.1596832,0.02,15,2.3,0,0,100,100,0.000027,0,0,0,0,3,0.011
2037,0.0096,0.0191,9.7474,0,0,0,0,0,0,-179,22.3761349,120.1596832,0.02,15,2.3,0,0,100,100,0.000027,0,0,0,0,3,0.011
2068,-0.0191,-0.0191,9.7809,0,0,0,0,0,0,-179,22.3761349,120.1596832,0.02,15,2.3,0,0,100,100,0.000027,0,0,0,0,3,0.011
2090,-0.0383,-0.0383,9.7521,0,0,0,0,0,0,-179,22.3761349,120.1596832,0.02,15,2.3,0,0,100,100,0.000027,0,0,0,0,3,0.011
2119,0,0.0383,9.7426,0,0,0,0,0,0,-179,22.3761349,120.1596832,0.02,15,2.3,0,0,100,100,0.000027,0,0,0,0,3,0.011
2141,0.0239,0.0239,9.7617,0,0,0,0,0,0,-179,22.3761349,120.1596832,0.02,15,2.3,0,0,100,100,0.000027,0,0,0,0,3,0.011
2163,-0.0239,-0.0048,9.7569,0,0,0,0,0,0,-179,22.3761349,120.1596832,0.02,15,2.3,0,0,100,100,0.000027,0,0,0,0,3,0.011
2194,-0.0048,0,9.7378,0,0,0,0,0,0,-179,22.3761349,120.1596832,0.02,15,2.3,0,0,100,100,0.000027,0,0,0,0,3,0.011
2216,0.0048,0.0431,9.7234,0,0,0,0,0,0,-179,22.3761349,120.1596832,0.02,15,2.3,0,0,100,100,0.000027,0,0,0,0,3,0.011
2238,0,0.0574,9.7521,0,0,0,0,0,0,-179,22.3761349,120.1596832,0.02,15,2.3,0,0,100,100,0.000027,0,0,0,0,3,0.011
2270,0.0239,0.0383,9.733,0,0,0,0,0,0,-179,22.3761349,120.1596832,0.02,15,2.3,0,0,100,100,0.000027,0,0,0,0,3,0.011
2291,-0.0191,-0.0287,9.8144,0,0,0,0,0,0,-179,22.3761349,120.1596832,0.02,15,2.3,0,0,100,100,0.000027,0,0,0,0,3,0.011
2321,0,0.0287,9.7904,0,0,0,0,0,0,-179,22.3761349,120.1596832,0.03,15,2.3,0,0,100,100,0.000027,0,0,0,0,3,0.011
2342,0.0096,0,9.7043,0,0,0,0,0,0,-179,22.3761349,120.1596832,0.03,15,2.3,0,0,100,100,0.000027,0,0,0,0,3,0.011
2364,0.0048,0.0335,9.7474,0,0,0,0,0,0,-179,22.3761349,120.1596832,0.03,15,2.3,0,0,100,100,0.000027,0,0,0,0,3,0.011
2396,0.0048,0.0335,9.7713,0,0,0,0,0,0,-179,22.3761349,120.1596832,0.03,15,2.3,0,0,100,100,0.000027,0,0,0,0,3,0.011
2417,0.0191,-0.0144,9.8335,0,0,0,0,0,0,-179,22.3761349,120.1596832,0.03,15,2.3,0,0,100,100,0.000027,0,0,0,0,3,0.011
2439,0.0191,0.0239,9.7091,0,0,0,0,0,0,-179,22.3761349,120.1596832,0.03,15,2.3,0,0,100,100,0.000027,0,0,0,0,3,0.011
2470,0.0144,0.0383,9.8096,0,0,0,0,0,0,-179,22.3761349,120.1596832,0.03,15,2.3,0,0,100,100,0.000027,0,0,0,0,3,0.011
2492,-0.0048,0.0096,9.7569,0,0,0,0,0,0,-179,22.3761349,120.1596832,0.03,15,2.3,0,0,100,100,0.000027,0,0,0,0,3,0.011
2522,0.0191,0.0191,9.7043,0,0,0,0,0,0,-179,22.3761349,120.1596832,0.03,15,2.2,0,0,100,100,0.000027,0,0,0,0,3,0.011
2543,0.0096,0.0479,9.7282,0,0,0,0,0,0,-179,22.3761349,120.1596832,0.03,15,2.2,0,0,100,100,0.000027,0,0,0,0,3,0.011
2565,0,0,9.7761,0,0,0,0,0,0,-179,22.3761349,120.1596832,0.03,15,2.2,0,0,100,100,0.000027,0,0,0,0,3,0.011
2597,0.0096,0.0574,9.7713,0,0,0,0,0,0,-179,22.3761349,120.1596832,0.03,15,2.2,0,0,100,100,0.000027,0,0,0,0,3,0.011
2618,0.0096,0.0574,9.7426,0,0,0,0,0,0,-179,22.3761349,120.1596832,0.03,15,2.2,0,0,100,100,0.000027,0,0,0,0,3,0.011
2640,-0.0287,0.0191,9.7426,0,0,0,0,0,0,-179,22.3761349,120.1596832,0.03,15,2.2,0,0,100,100,0.000027,0,0,0,0,3,0.011
2672,0,0.0479,9.733,0,0,0,0,0,0,-179,22.3761349,120.1596832,0.03,15,2.2,0,0,100,100,0.000027,0,0,0,0,3,0.011
2693,0.0096,0.0479,9.733,0,0,0,0,0,0,-179,22.3761349,120.1596832,0.03,15,2.2,0,0,100,100,0.000027,0,0,0,0,3,0.011
2723,0.0191,-0.0048,9.8287,0,0,0,0,0,0,-179,22.3761349,120.1596832,0.03,16,2.09,0,0,100,100,0.000027,0,0,0,0,3,0.011
2745,0.0239,0.0431,9.7187,0,0,0,0,0,0,-179,22.3761349,120.1596832,0.03,16,2.09,0,0,100,100,0.000027,0,0,0,0,3,0.011
2766,0.0239,0.0526,9.7378,0,0,0,0,0,0,-179,22.3761349,120.1596832,0.03,16,2.09,0,0,100,100,0.000027,0,0,0,0,3,0.011
2798,0.0048,0.0096,9.8383,0,0,0,0,0,0,-179,22.3761349,120.1596832,0.03,16,2.09,0,0,100,100,0.000027,0,0,0,0,3,0.011
2820,-0.0048,0,9.7617,0,0,0,0,0,0,-179,22.3761349,120.1596832,0.03,16,2.09,0,0,100,100,0.000027,0,0,0,0,3,0.011
2841,0,0.0431,9.7569,0,0,0,0,0,0,-179,22.3761349,120.1596832,0.03,16,2.09,0,0,100,100,0.000027,0,0,0,0,3,0.011
2873,0.0048,0.0383,9.7617,0,0,0,0,0,0,-179,22.3761349,120.1596832,0.03,16,2.09,0,0,100,100,0.000027,0,0,0,0,3,0.011
2895,0.0096,0.0526,9.7426,0,0,0,0,0,0,-179,22.3761349,120.1596832,0.03,16,2.09,0,0,100,100,0.000027,0,0,0,0,3,0.011
2924,0.0048,0.0287,9.7904,0,0,0,0,0,0,-179,22.3761349,120.1596832,0.04,16,2.09,0,0,100,100,0.000027,0,0,0,0,3,0.011
2946,0,0.0048,9.8239,0,0,0,0,0,0,-179,22.3761349,120.1596832,0.04,16,2.09,0,0,100,100,0.000027,0,0,0,0,3,0.011
2967,0,-0.0144,9.8431,0,0,0,0,0,0,-179,22.3761349,120.1596832,0.04,16,2.09,0,0,100,100,0.000027,0,0,0,0,3,0.011
2999,-0.0096,0.0622,9.733,0,0,0,0,0,0,-179,22.3761349,120.1596832,0.04,16,2.09,0,0,100,100,0.000027,0,0,0,0,3,0.011
3021,0,0.0144,9.7761,0,0,0,0,0,0,-179,22.3761349,120.1596832,0.04,16,2.09,0,0,100,100,0.000027,0,0,0,0,3,0.011
3043,0,-0.0191,9.8287,0,0,0,0,0,0,-179,22.3761349,120.1596832,0.04,16,2.09,0,0,100,100,0.000027,0,0,0,0,3,0.011
3074,0.0383,0.0287,9.7474,0,0,0,0,0,0,-179,22.3761349,120.1596832,0.04,16,2.09,0,0,100,100,0.000027,0,0,0,0,3,0.011
3096,0.0048,0.0383,9.8096,0,0,0,0,0,0,-179,22.3761349,120.1596832,0.04,16,2.09,0,0,100,100,0.000027,0,0,0,0,3,0.011
3126,0.0048,-0.0335,9.8239,0,0,0,0,0,0,-179,22.3761349,120.1596832,0.04,16,2.09,0,0,100,100,0.000027,0,0,0,0,3,0.011
3147,0,0.0574,9.7713,0,0,0,0,0,0,-179,22.3761349,120.1596832,0.04,16,2.09,0,0,100,100,0.000027,0,0,0,0,3,0.011
3169,-0.0048,0.0191,9.7856,0,0,0,0,0,0,-179,22.3761349,120.1596832,0.04,16,2.09,0,0,100,100,0.000027,0,0,0,0,3,0.011
3201,0.0096,0,9.8144,0,0,0,0,0,0,-179,22.3761349,120.1596832,0.04,16,2.09,0,0,100,100,0.000027,0,0,0,0,3,0.011
3222,0.0096,0.0479,9.7282,0,0,0,0,0,0,-179,22.3761349,120.1596832,0.04,16,2.09,0,0,100,100,0.000027,0,0,0,0,3,0.011
3244,-0.0096,0.0383,9.7856,0,0,0,0,0,0,-179,22.3761349,120.1596832,0.04,16,2.09,0,0,100,100,0.000027,0,0,0,0,3,0.011
3276,0.0239,-0.0239,9.8574,0,0,0,0,0,0,-179,22.3761349,120.1596832,0.04,16,2.09,0,0,100,100,0.000027,0,0,0,0,3,0.011
3297,-0.0048,-0.0526,9.8766,0,0,0,0,0,0,-179,22.3761349,120.1596832,0.04,16,2.09,0,0,100,100,0.000027,0,0,0,0,3,0.011
3327,0.0191,0.0096,9.7809,0,0,0,0,0,0,-179,22.3761349,120.1596832,0.04,16,2.09,0,0,100,100,0.000027,0,0,0,0,3,0.011
3349,0,-0.0239,9.8144,0,0,0,0,0,0,-179,22.3761349,120.1596832,0.04,16,2.09,0,0,100,100,0.000027,0,0,0,0,3,0.011
3370,0,-0.0479,9.8287,0,0,0,0,0,0,-179,22.3761349,120.1596832,0.04,16,2.09,0,0,100,100,0.000027,0,0,0,0,3,0.011
3402,-0.0048,0.0431,9.7856,0,0,0,0,0,0,-179,22.3761349,120.1596832,0.04,16,2.09,0,0,100,100,0.000027,0,0,0,0,3,0.011
3424,0.0048,0.0191,9.8335,0,0,0,0,0,0,-179,22.3761349,120.1596832,0.04,16,2.09,0,0,100,100,0.000027,0,0,0,0,3,0.011
3445,0,-0.0383,9.8096,0,0,0,0,0,0,-179,22.3761349,120.1596832,0.04,16,2.09,0,0,100,100,0.000027,0,0,0,0,3,0.011
3477,-0.0287,-0.0622,9.8239,0,0,0,0,0,0,-179,22.3761349,120.1596832,0.04,16,2.09,0,0,100,100,0.000027,0,0,0,0,3,0.011
3499,0.0096,0.0191,9.7856,0,0,0,0,0,0,-179,22.3761349,120.1596832,0.04,16,2.09,0,0,100,100,0.000027,0,0,0,0,3,0.011
3528,0.0048,-0.0335,9.8,0,0,0,0,0,0,-179,22.3761349,120.1596832,0.05,16,1.9,0,0,100,100,0.000027,0,0,0,0,3,0.011
3550,-0.0191,-0.0287,9.8287,0,0,0,0,0,0,-179,22.3761349,120.1596832,0.05,16,1.9,0,0,100,100,0.000027,0,0,0,0,3,0.011
3572,0.0144,0.0622,9.7521,0,0,0,0,0,0,-179,22.3761349,120.1596832,0.05,16,1.9,0,0,100,100,0.000027,0,0,0,0,3,0.011
3603,0.0287,0,9.8526,0,0,0,0,0,0,-179,22.3761349,120.1596832,0.05,16,1.9,0,0,100,100,0.000027,0,0,0,0,3,0.011
3625,0,-0.0479,9.8766,0,0,0,0,0,0,-179,22.3761349,120.1596832,0.05,16,1.9,0,0,100,100,0.000027,0,0,0,0,3,0.011
3647,0.0096,0.0287,9.7569,0,0,0,0,0,0,-179,22.3761349,120.1596832,0.05,16,1.9,0,0,100,100,0.000027,0,0,0,0,3,0.011
3678,0.0096,-0.0191,9.8144,0,0,0,0,0,0,-179,22.3761349,120.1596832,0.05,16,1.9,0,0,100,100,0.000027,0,0,0,0,3,0.011
3700,0.0144,0.0383,9.7521,0,0,0,0,0,0,-179,22.3761349,120.1596832,0.05,16,1.9,0,0,100,100,0.000027,0,0,0,0,3,0.011
3730,0.0191,0.0431,9.7665,0,0,0,0,0,0,-179,22.3761349,120.1596832,0.05,15,1.9,0,0,100,100,0.000027,0,0,0,0,3,0.011
3751,0,0.0335,9.8191,0,0,0,0,0,0,-179,22.3761349,120.1596832,0.05,15,1.9,0,0,100,100,0.000027,0,0,0,0,3,0.011
3773,0,-0.0335,9.8144,0,0,0,0,0,0,-179,22.3761349,120.1596832,0.05,15,1.9,0,0,100,100,0.000027,0,0,0,0,3,0.011
3805,0,0.0383,9.7761,0,0,0,0,0,0,-179,22.3761349,120.1596832,0.05,15,1.9,0,0,100,100,0.000027,0,0,0,0,3,0.011
3826,0,0.0144,9.8,0,0,0,0,0,0,-179,22.3761349,120.1596832,0.05,15,1.9,0,0,100,100,0.000027,0,0,0,0,3,0.011
3848,0.0239,0.0096,9.8239,0,0,0,0,0,0,-179,22.3761349,120.1596832,0.05,15,1.9,0,0,100,100,0.000027,0,0,0,0,3,0.011
3880,0.0048,0.0574,9.7426,0,0,0,0,0,0,-179,22.3761349,120.1596832,0.05,15,1.9,0,0,100,100,0.000027,0,0,0,0,3,0.011
3901,-0.0048,0.0383,9.7665,0,0,0,0,0,0,-179,22.3761349,120.1596832,0.05,15,1.9,0,0,100,100,0.000027,0,0,0,0,3,0.011
3931,0,0.0239,9.7713,0,0,0,0,0,0,-179,22.3761349,120.1596756,0.05,16,1.9,0,0,100,100,0.000027,0,0,0,0,3,0.011
3953,0.0144,-0.0144,9.8,0,0,0,0,0,0,-179,22.3761349,120.1596756,0.05,16,1.9,0,0,100,100,0.000027,0,0,0,0,3,0.011
3974,0.0048,0.0574,9.7234,0,0,0,0,0,0,-179,22.3761349,120.1596756,0.05,16,1.9,0,0,100,100,0.000027,0,0,0,0,3,0.011
4006,0,0.0239,9.7952,0,0,0,0,0,0,-179,22.3761349,120.1596756,0.05,16,1.9,0,0,100,100,0.000027,0,0,0,0,3,0.011
4028,-0.0048,-0.0287,9.8144,0,0,0,0,0,0,-179,22.3761349,120.1596756,0.05,16,1.9,0,0,100,100,0.000027,0,0,0,0,3,0.011
4049,0.0239,0.0431,9.7234,0,0,0,0,0,0,-179,22.3761349,120.1596756,0.05,16,1.9,0,0,100,100,0.000027,0,0,0,0,3,0.011
4081,0,0.0383,9.7952,0,0,0,0,0,0,-179,22.3761349,120.1596756,0.05,16,1.9,0,0,100,100,0.000027,0,0,0,0,3,0.011
4103,0,0.0239,9.8622,0,0,0,0,0,0,-179,22.3761349,120.1596756,0.05,16,1.9,0,0,100,100,0.000027,0,0,0,0,3,0.011
4132,-0.0191,-0.0574,9.8383,0,0,0,0,0,0,-179,22.376133,120.1596756,0.05,16,1.9,0,0,100,100,0.000027,0,0,0,0,3,0.011
4154,0.0144,0.0335,9.7474,0,0,0,0,0,0,-179,22.376133,120.1596756,0.05,16,1.9,0,0,100,100,0.000027,0,0,0,0,3,0.011
4175,0.0048,0.0048,9.8144,0,0,0,0,0,0,-179,22.376133,120.1596756,0.05,16,1.9,0,0,100,100,0.000027,0,0,0,0,3,0.011
4207,0,0.0574,9.7474,0,0,0,0,0,0,-179,22.376133,120.1596756,0.05,16,1.9,0,0,100,100,0.000027,0,0,0,0,3,0.011
4229,0,0.0431,9.7139,0,0,0,0,0,0,-179,22.376133,120.1596756,0.05,16,1.9,0,0,100,100,0.000027,0,0,0,0,3,0.011
4250,0,0.0574,9.7282,0,0,0,0,0,0,-179,22.376133,120.1596756,0.05,16,1.9,0,0,100,100,0.000027,0,0,0,0,3,0.011
4282,0.0048,0.0048,9.7569,0,0,0,0,0,0,-179,22.376133,120.1596756,0.05,16,1.9,0,0,100,100,0.000027,0,0,0,0,3,0.011
4304,0,0.0574,9.7713,0,0,0,0,0,0,-179,22.376133,120.1596756,0.05,16,1.9,0,0,100,100,0.000027,0,0,0,0,3,0.011
4333,0.0287,0.0383,9.8048,0,0,0,0,0,0,-179,22.376133,120.1596756,0.06,16,1.9,0,0,100,100,0.000027,0,0,0,0,3,0.011
4355,0.0383,-0.0144,9.8479,0,0,0,0,0,0,-179,22.376133,120.1596756,0.06,16,1.9,0,0,100,100,0.000027,0,0,0,0,3,0.011
4377,0.0144,0.0526,9.7904,0,0,0,0,0,0,-179,22.376133,120.1596756,0.06,16,1.9,0,0,100,100,0.000027,0,0,0,0,3,0.011
4409,0.0287,0.0574,9.7234,0,0,0,0,0,0,-179,22.376133,120.1596756,0.06,16,1.9,0,0,100,100,0.000027,0,0,0,0,3,0.011
4430,0.0144,0.0239,9.7761,0,0,0,0,0,0,-179,22.376133,120.1596756,0.06,16,1.9,0,0,100,100,0.000027,0,0,0,0,3,0.011
4452,0.0191,0.0287,9.7569,0,0,0,0,0,0,-179,22.376133,120.1596756,0.06,16,1.9,0,0,100,100,0.000027,0,0,0,0,3,0.011
4484,0.0096,0.0144,9.7521,0,0,0,0,0,0,-179,22.376133,120.1596756,0.06,16,1.9,0,0,100,100,0.000027,0,0,0,0,3,0.011
4505,0.0287,0.0574,9.7282,0,0,0,0,0,0,-179,22.376133,120.1596756,0.06,16,1.9,0,0,100,100,0.000027,0,0,0,0,3,0.011
4535,0.0144,0.0144,9.8383,0,0,0,0,0,0,-179,22.376133,120.1596756,0.06,16,1.9,0,0,100,100,0.000027,0,0,0,0,3,0.011
4556,0.0144,0.0191,9.7761,0,0,0,0,0,0,-179,22.376133,120.1596756,0.06,16,1.9,0,0,100,100,0.000027,0,0,0,0,3,0.011
4578,0,0.0574,9.7809,0,0,0,0,0,0,-179,22.376133,120.1596756,0.06,16,1.9,0,0,100,100,0.000027,0,0,0,0,3,0.011
4610,0.0287,0.0479,9.7904,0,0,0,0,0,0,-179,22.376133,120.1596756,0.06,16,1.9,0,0,100,100,0.000027,0,0,0,0,3,0.011
4631,-0.0144,-0.0144,9.7474,0,0,0,0,0,0,-179,22.376133,120.1596756,0.06,16,1.9,0,0,100,100,0.000027,0,0,0,0,3,0.011
4653,0.0144,0.0287,9.7426,0,0,0,0,0,0,-179,22.376133,120.1596756,0.06,16,1.9,0,0,100,100,0.000027,0,0,0,0,3,0.011
4685,0.0048,0.0048,9.7856,0,0,0,0,0,0,-179,22.376133,120.1596756,0.06,16,1.9,0,0,100,100,0.000027,0,0,0,0,3,0.011
4706,0.0048,0.0431,9.7521,0,0,0,0,0,0,-179,22.376133,120.1596756,0.06,16,1.9,0,0,100,100,0.000027,0,0,0,0,3,0.011
4736,0.0287,0.0383,9.7426,0,0,0,0,0,0,-179,22.376133,120.1596756,0.06,16,1.9,0,0,100,100,0.000027,0,0,0,0,3,0.011
4758,0.0383,0.0144,9.8144,0,0,0,0,0,0,-179,22.376133,120.1596756,0.06,16,1.9,0,0,100,100,0.000027,0,0,0,0,3,0.011
4779,0.0096,-0.0048,9.8574,0,0,0,0,0,0,-179,22.376133,120.1596756,0.06,16,1.9,0,0,100,100,0.000027,0,0,0,0,3,0.011
4811,0.0048,0.0431,9.7091,0,0,0,0,0,0,-179,22.376133,120.1596756,0.06,16,1.9,0,0,100,100,0.000027,0,0,0,0,3,0.011
4833,0,0.0287,9.7521,0,0,0,0,0,0,-179,22.376133,120.1596756,0.06,16,1.9,0,0,100,100,0.000027,0,0,0,0,3,0.011
4854,-0.0144,-0.0096,9.7474,0,0,0,0,0,0,-179,22.376133,120.1596756,0.06,16,1.9,0,0,100,100,0.000027,0,0,0,0,3,0.011
4886,-0.0048,0.0335,9.7426,0,0,0,0,0,0,-179,22.376133,120.1596756,0.06,16,1.9,0,0,100,100,0.000027,0,0,0,0,3,0.011
4908,0.0048,0.0239,9.7474,0,0,0,0,0,0,-179,22.376133,120.1596756,0.06,16,1.9,0,0,100,100,0.000027,0,0,0,0,3,0.011
4937,-0.0048,0.0191,9.7665,0,0,0,0,0,0,-179,22.376133,120.1596756,0.06,16,1.9,0,0,100,100,0.000027,0,0,0,0,3,0.011
4959,0.0048,0.0287,9.7378,0,0,0,0,0,0,-179,22.376133,120.1596756,0.06,16,1.9,0,0,100,100,0.000027,0,0,0,0,3,0.011
4981,0.0191,0.0574,9.733,0,0,0,0,0,0,-179,22.376133,120.1596756,0.06,16,1.9,0,0,100,100,0.000027,0,0,0,0,3,0.011
5012,0,0.0383,9.7665,0,0,0,0,0,0,-179,22.376133,120.1596756,0.06,16,1.9,0,0,100,100,0.000027,0,0,0,0,3,0.011
5034,0,0.0048,9.7378,0,0,0,0,0,0,-179,22.376133,120.1596756,0.06,16,1.9,0,0,100,100,0.000027,0,0,0,0,3,0.011
5056,-0.0048,0.0479,9.7234,0,0,0,0,0,0,-179,22.376133,120.1596756,0.06,16,1.9,0,0,100,100,0.000027,0,0,0,0,3,0.011
5088,0.0144,0.0383,9.7761,0,0,0,0,0,0,-179,22.376133,120.1596756,0.06,16,1.9,0,0,100,100,0.000027,0,0,0,0,3,0.011
5109,0.0048,-0.0096,9.733,0,0,0,0,0,0,-179,22.376133,120.1596756,0.06,16,1.9,0,0,100,100,0.000027,0,0,0,0,3,0.011
5139,0.0239,0.0287,9.733,0,0,0,0,0,0,-179,22.376133,120.1596756,0.06,16,1.9,0,0,100,100,0.000027,0,0,0,0,3,0.011
5161,0.0287,0.0718,9.7187,0,0,0,0,0,0,-179,22.376133,120.1596756,0.06,16,1.9,0,0,100,100,0.000027,0,0,0,0,3,0.011
5182,0.0287,0.0431,9.8144,0,0,0,0,0,0,-179,22.376133,120.1596756,0.06,16,1.9,0,0,100,100,0.000027,0,0,0,0,3,0.011
5214,0.0096,0.0335,9.733,0,0,0,0,0,0,-179,22.376133,120.1596756,0.06,16,1.9,0,0,100,100,0.000027,0,0,0,0,3,0.011
5236,-0.0239,0.0431,9.7234,0,0,0,0,0,0,-179,22.376133,120.1596756,0.06,16,1.9,0,0,100,100,0.000027,0,0,0,0,3,0.011
5257,0.0048,0.0479,9.7474,0,0,0,0,0,0,-179,22.376133,120.1596756,0.06,16,1.9,0,0,100,100,0.000027,0,0,0,0,3,0.011
5289,0,0.0479,9.7521,0,0,0,0,0,0,-179,22.376133,120.1596756,0.06,16,1.9,0,0,100,100,0.000027,0,0,0,0,3,0.011
5311,0.0239,0.0383,9.7665,0,0,0,0,0,0,-179,22.376133,120.1596756,0.06,16,1.9,0,0,100,100,0.000027,0,0,0,0,3,0.011
5340,0.0144,0.0096,9.7952,0,0,0,0,0,0,-179,22.376133,120.1596756,0.06,16,1.9,0,0,100,100,0.000027,0,0,0,0,3,0.011
5362,0.0191,0.0144,9.8,0,0,0,0,0,0,-179,22.376133,120.1596756,0.06,16,1.9,0,0,100,100,0.000027,0,0,0,0,3,0.011
5384,0.0048,0.0287,9.7761,0,0,0,0,0,0,-179,22.376133,120.1596756,0.06,16,1.9,0,0,100,100,0.000027,0,0,0,0,3,0.011
5415,0.0191,0,9.7904,0,0,0,0,0,0,-179,22.376133,120.1596756,0.06,16,1.9,0,0,100,100,0.000027,0,0,0,0,3,0.011
5437,-0.0048,0.0526,9.7809,0,0,0,0,0,0,-179,22.376133,120.1596756,0.06,16,1.9,0,0,100,100,0.000027,0,0,0,0,3,0.011
5459,0,0.0383,9.7713,0,0,0,0,0,0,-179,22.376133,120.1596756,0.06,16,1.9,0,0,100,100,0.000027,0,0,0,0,3,0.011
5490,0.0287,0.0479,9.7856,0,0,0,0,0,0,-179,22.376133,120.1596756,0.06,16,1.9,0,0,100,100,0.000027,0,0,0,0,3,0.011
5512,0.0096,0.0144,9.8144,0,0,0,0,0,0,-179,22.376133,120.1596756,0.06,16,1.9,0,0,100,100,0.000027,0,0,0,0,3,0.011
5542,0.0287,0.0431,9.7809,0,0,0,0,0,0,-179,22.376133,120.1596756,0.07,16,1.9,0,0,100,100,0.000027,0,0,0,0,3,0.011
5563,-0.0096,0.0526,9.7426,0,0,0,0,0,0,-179,22.376133,120.1596756,0.07,16,1.9,0,0,100,100,0.000027,0,0,0,0,3,0.011
5585,-0.0239,0,9.7665,0,0,0,0,0,0,-179,22.376133,120.1596756,0.07,16,1.9,0,0,100,100,0.000027,0,0,0,0,3,0.011
5617,0,0.0287,9.7761,0,0,0,0,0,0,-179,22.376133,120.1596756,0.07,16,1.9,0,0,100,100,0.000027,0,0,0,0,3,0.011
5639,-0.0479,0.0144,9.8431,0,0,0,0,0,0,-179,22.376133,120.1596756,0.07,16,1.9,0,0,100,100,0.000027,0,0,0,0,3,0.011
5660,0.0335,0.0574,9.7569,0,0,0,0,0,0,-179,22.376133,120.1596756,0.07,16,1.9,0,0,100,100,0.000027,0,0,0,0,3,0.011
5692,-0.067,-0.0526,9.6899,0,0,0,0,0,0,-179,22.376133,120.1596756,0.07,16,1.9,0,0,100,100,0.000027,0,0,0,0,3,0.011
5714,0,-0.1148,9.7043,0,0,0,0,0,0,-179,22.376133,120.1596756,0.07,16,1.9,0,0,100,100,0.000027,0,0,0,0,3,0.011
5743,-0.1101,0.1292,9.4603,0,0,0,0,0,0,-179,22.376133,120.1596756,0.07,16,1.9,0,0,100,100,0.000027,0,0,0,0,3,0.011
5765,-0.4163,-0.0526,9.8526,0,0,0,0,0,0,-179,22.376133,120.1596756,0.07,16,1.9,0,0,100,100,0.000027,0,0,0,0,3,0.011
5787,-0.7561,-0.7417,9.7426,-0.1057,0,0,0,0,0,-179,22.376133,120.1596756,0.07,16,1.9,0,0,100,100,0.000027,0,0,0,0,3,0.011
5818,0.4402,-0.0861,9.5799,-0.0593,-0.0515,0,0,0,0,-179,22.376133,120.1596756,0.07,16,1.9,0,0,100,100,0.000027,0,0,0,0,3,0.011
5840,-0.0957,0.0766,9.8766,-0.0623,0,0,0,0,0,-179,22.376133,120.1596756,0.07,16,1.9,0,0,100,100,0.000027,0,0,0,0,3,0.011
5862,-0.3063,-0.0048,10.2594,-0.0831,0,0,0,0,0,-179,22.376133,120.1596756,0.07,16,1.9,0,0,100,100,0.000027,0,0,0,0,3,0.011
5894,-0.0048,0.1723,9.9148,-0.0764,0,-0.3662,-0.0005,0,0,-179,22.376133,120.1596756,0.07,16,1.9,0,0,100,100,0.000027,0,0,0,0,3,0.011
5915,-0.1723,-0.1771,10.5704,-0.0846,0,-0.2441,-0.0009,0,0,-179,22.376133,120.1596756,0.07,16,1.9,0,0,100,100,0.000027,0,0,0,0,3,0.011
5955,-0.1771,-0.0622,9.9675,-0.0924,0,0.3052,-0.0003,0,0,-179,22.376133,120.1596756,0.07,16,1.9,0,0,100,100,0.000027,0,0,0,0,3,0.011
5977,0.8613,0.3445,9.2641,0,0,-0.1831,-0.0006,0,0,-179,22.376133,120.1596756,0.07,16,1.9,0,0,100,100,0.000027,0,0,0,0,3,0.011
5998,-0.4546,-0.3397,10.0632,0,0,0.061,-0.0004,0,0,-179,22.376133,120.1596756,0.07,16,1.9,0,0,100,100,0.000027,0,0,0,0,3,0.011
6030,0.2153,-0.0479,9.7282,0,0,-0.061,-0.0005,0,0,-179,22.376133,120.1596756,0.07,16,1.9,0,0,100,100,0.000027,0,0,0,0,3,0.011
6052,-0.0479,0.1005,9.3502,0,0,-0.061,-0.0005,0,0,-179,22.376133,120.1596756,0.07,16,1.9,0,0,100,100,0.000027,0,0,0,0,3,0.011
6074,-0.402,-0.1579,10.1637,-0.0601,0,0,-0.0005,0,0,-179,22.376133,120.1596756,0.07,16,1.9,0,0,100,100,0.000027,0,0,0,0,3,0.011
6105,0.1244,0.0431,9.6756,0,0,0,-0.0005,0,0,-179,22.376133,120.1596756,0.07,16,1.9,0,0,100,100,0.000027,0,0,0,0,3,0.011
6127,0.1723,0.0335,9.7234,0,0,-0.061,-0.0005,0,0,-179,22.376133,120.1596756,0.07,16,1.9,0,0,100,100,0.000027,0,0,0,0,3,0.011
6157,0.4737,-0.0191,9.9148,0,0,-0.1831,-0.0007,0,0,-179,22.376133,120.1596756,0.07,16,1.9,0,0,100,100,0.000027,0,0,0,0,3,0.011
6178,-0.2632,0.0287,9.6852,0,0,-0.3052,-0.0011,0,0,-179,22.376133,120.1596756,0.07,16,1.9,0,0,100,100,0.000027,0,0,0,0,3,0.011
6200,-0.1962,0.0526,9.6947,0,0,-0.1221,-0.0012,0,0,-179,22.376133,120.1596756,0.07,16,1.9,0,0,100,100,0.000027,0,0,0,0,3,0.011
6232,0.1196,-0.0239,9.7282,0,0,0.1221,-0.0009,0,0,-179,22.376133,120.1596756,0.07,16,1.9,0,0,100,100,0.000027,0,0,0,0,3,0.011
6254,-0.1436,0.1196,9.7521,0,0,-0.1221,-0.001,0,0,-179,22.376133,120.1596756,0.07,16,1.9,0,0,100,100,0.000027,0,0,0,0,3,0.011
6275,0.4067,-1.5887,11.3552,0,-0.1361,-11.2915,-0.0177,0,0,-179,22.376133,120.1596756,0.07,16,1.9,0,0,100,100,0.000027,0,0,0,0,3,0.011
6307,1.4164,-0.4929,9.4076,0.1332,-0.1664,5.6152,-0.0079,0,0,-179,22.376133,120.1596756,0.07,16,1.9,0,0,100,100,0.000027,0,0,0,0,3,0.011
6329,-0.0526,-0.6077,9.6708,0.1174,-0.204,2.0142,-0.0042,0,0,-179,22.376133,120.1596756,0.07,16,1.9,0,0,100,100,0.000027,0,0,0,0,3,0.011
6358,-0.1531,-0.3493,10.5991,0.0944,-0.2163,-6.4087,-0.0134,0,0,-179,22.376133,120.1596756,0.07,16,1.9,0,0,100,100,0.000027,0,0,0,0,3,0.011
6380,-0.1866,0.2345,10.0728,0.0705,-0.178,-11.2915,-0.029,0,0,-179,22.376133,120.1596756,0.07,16,1.9,0,0,100,100,0.000027,0,0,0,0,3,0.011
6412,-0.067,0.402,9.5416,0.0588,-0.1287,-8.7891,-0.0395,0,0,-179,22.376133,120.1596756,0.07,16,1.9,0,0,100,100,0.000027,0,0,0,0,3,0.011
6434,-0.3493,1.0719,10.0345,0,0,-1.9531,-0.0391,0,0,-179,22.376133,120.1596756,0.07,16,1.9,0,0,100,100,0.000027,0,0,0,0,3,0.011
6465,-0.0239,1.56,10.202,0,0.1082,-7.5073,-0.0469,0,0,-179,22.376133,120.1596756,0.07,16,1.9,0,0,100,100,0.000027,0,0,0,0,3,0.011
6487,-0.4354,1.871,11.336,0,0.2581,-5.9814,-0.0518,0,0,-179,22.376133,120.1596756,0.07,16,1.9,0,0,100,100,0.000027,0,0,0,0,3,0.011
6509,-0.6412,1.3829,11.5896,-0.0716,0.3537,-2.7466,-0.0515,0,0,-179,22.376133,120.1596756,0.07,16,1.9,0,0,100,100,0.000027,0,0,0,0,3,0.011
6541,-0.6651,0.7608,12.0969,-0.122,0.3883,-8.7891,-0.0601,0,0,-179,22.376133,120.1596756,0.07,16,1.9,0,0,100,100,0.000027,0,0,0,0,3,0.011
6571,-0.0861,0.6125,12.1639,-0.119,0.4073,-16.5405,-0.0795,0,0,-179,22.3761311,120.1596756,0.08,16,1.8,0,0,100,100,0.000027,0,0,0,0,3,0.011
6592,0.1053,1.6413,11.5992,-0.0999,0.5122,-18.6157,-0.1004,0,0,-179,22.3761311,120.1596756,0.08,16,1.8,0,0,100,100,0.000027,0,0,0,0,3,0.011
6624,0.0909,1.0001,11.4413,-0.0837,0.5537,-12.7563,-0.1108,0,0,-179,22.3761311,120.1596756,0.08,16,1.8,0,0,100,100,0.000027,0,0,0,0,3,0.011
6646,-0.4546,0.847,10.958,-0.1152,0.5786,-12.0239,-0.1192,0,0,-179,22.3761311,120.1596756,0.08,16,1.8,0,0,100,100,0.000027,0,0,0,0,3,0.011
6678,-0.2297,1.1484,11.1063,-0.1249,0.6271,-17.0288,-0.1343,0,0,-179,22.3761311,120.1596756,0.08,16,1.8,0,0,100,100,0.000027,0,0,0,0,3,0.011
6699,-0.2967,1.1054,10.8288,-0.1395,0.6677,-14.8926,-0.145,0,0,-179,22.3761311,120.1596756,0.08,16,1.8,0,0,100,100,0.000027,0,0,0,0,3,0.011
6731,-0.3063,0.957,10.5082,-0.1537,0.6923,-10.8643,-0.1488,0,0,-179,22.3761311,120.1596756,0.08,16,1.8,0,0,100,100,0.000027,0,0,0,0,3,0.011
6753,-0.5503,0.8709,10.4173,-0.1874,0.7075,-11.2305,-0.1528,0,0,-179,22.3761311,120.1596756,0.08,16,1.8,0,0,100,100,0.000027,0,0,0,0,3,0.011
6793,-0.5838,1.0288,10.4604,-0.2211,0.7348,-7.6904,-0.1512,0,0,-179,22.3761311,120.1596756,0.08,16,1.9,0,0,100,100,0.000027,0,0,0,0,3,0.011
6815,-0.8087,0.8374,9.9101,-0.2711,0.7435,-5.6763,-0.1468,0,0,-179,22.3761311,120.1596756,0.08,16,1.9,0,0,100,100,0.000027,0,0,0,0,3,0.011
6846,-0.4163,0.6269,9.7426,-0.2834,0.7336,-5.249,-0.1421,0,0,-179,22.3761311,120.1596756,0.08,16,1.9,0,0,100,100,0.000027,0,0,0,0,3,0.011
6868,-0.3828,0.6173,9.8096,-0.2919,0.7237,-4.6387,-0.1369,0,0,-179,22.3761311,120.1596756,0.08,16,1.9,0,0,100,100,0.000027,0,0,0,0,3,0.011
6900,-0.5838,0.268,9.489,-0.3167,0.685,1.2817,-0.1234,0,0,-179,22.3761311,120.1596756,0.08,16,1.9,0,0,100,100,0.000027,0,0,0,0,3,0.011
6922,-0.4881,0.201,9.4172,-0.3312,0.6438,3.54,-0.1076,0,0,-179,22.3761311,120.1596756,0.08,16,1.9,0,0,100,100,0.000027,0,0,0,0,3,0.011
6943,-0.4689,-0.0191,9.4124,-0.3429,0.5875,5.7983,-0.0899,0,0,-179,22.3761311,120.1596756,0.08,16,1.9,0,0,100,100,0.000027,0,0,0,0,3,0.011
6975,-0.3397,0.0574,9.2354,-0.3427,0.5424,14.5264,-0.0607,0,0,-179,22.3761311,120.1596756,0.08,16,1.9,0,0,100,100,0.000027,0,0,0,0,3,0.011
7005,-0.8183,-0.2058,9.0918,-0.3831,0.4788,16.0522,-0.0317,0,0,-179,22.3761311,120.159668,0.08,20,1.7,0,0,100,100,0.000027,0,0,0,0,3,0.011
7027,-0.5407,-0.1292,9.2306,-0.3965,0.4271,13.3667,-0.0092,0,0,-179,22.3761311,120.159668,0.08,20,1.7,0,0,100,100,0.000027,0,0,0,0,3,0.011
7058,-0.5981,-0.0813,9.1636,-0.4136,0.3839,13.2446,0.0112,0,0,-179,22.3761311,120.159668,0.08,20,1.7,0,0,100,100,0.000027,0,0,0,0,3,0.011
7080,-0.7417,-0.2153,8.8525,-0.4415,0.333,12.0239,0.0281,0,0,-179,22.3761311,120.159668,0.08,20,1.7,0,0,100,100,0.000027,0,0,0,0,3,0.011
7112,-0.3397,-0.2488,9.3215,-0.4329,0.2835,6.0425,0.0347,0,0,-179,22.3761311,120.159668,0.08,20,1.7,0,0,100,100,0.000027,0,0,0,0,3,0.011
7134,-0.2393,0.445,9.0487,-0.4164,0.2973,3.8452,0.0374,0,0,-179,22.3761311,120.159668,0.08,20,1.7,0,0,100,100,0.000027,0,0,0,0,3,0.011
7155,0.1101,-0.201,9.6756,-0.3717,0.2549,2.9907,0.0387,0,0,-179,22.3761311,120.159668,0.08,20,1.7,0,0,100,100,0.000027,0,0,0,0,3,0.011
7187,-0.3876,-0.1962,9.3167,-0.373,0.2166,0.9155,0.0368,0,0,-179,22.3761311,120.159668,0.08,20,1.7,0,0,100,100,0.000027,0,0,0,0,3,0.011
7217,-0.1771,-0.1914,9.0822,-0.3564,0.1819,-4.0894,0.0276,0,0,-179,22.3761292,120.159668,0.08,20,1.7,0,0,100,100,0.000027,0,0,0,0,3,0.011
7239,0.0622,-0.311,9.3167,-0.3208,0.14,-5.4321,0.0172,0,0,-179,22.3761292,120.159668,0.08,20,1.7,0,0,100,100,0.000027,0,0,0,0,3,0.011
7260,0.1483,-0.3685,9.3071,-0.2809,0.0968,-2.6855,0.0117,0,0,-179,22.3761292,120.159668,0.08,20,1.7,0,0,100,100,0.000027,0,0,0,0,3,0.011
7292,-0.5024,-0.0335,8.1348,-0.2997,0.0857,0.2441,0.0111,0,0,-179,22.3761292,120.159668,0.08,20,1.7,0,0,100,100,0.000027,0,0,0,0,3,0.011
7314,-0.3206,-0.78,8.7281,-0.3015,0,-5.127,0.0025,0,0,-179,22.3761292,120.159668,0.08,20,1.7,0,0,100,100,0.000027,0,0,0,0,3,0.011
7335,-0.7417,-1.0527,8.8956,-0.3389,-0.0784,-13.916,-0.0183,0,0,-179,22.3761292,120.159668,0.08,20,1.7,0,0,100,100,0.000027,0,0,0,0,3,0.011
7367,0.1579,-0.8661,8.9865,-0.2967,-0.1454,-14.5874,-0.0384,0,0,-179,22.3761292,120.159668,0.08,20,1.7,0,0,100,100,0.000027,0,0,0,0,3,0.011
7389,0,-0.9427,8.8334,-0.2715,-0.2131,-7.5684,-0.0464,0,0,-179,22.3761292,120.159668,0.08,20,1.7,0,0,100,100,0.000027,0,0,0,0,3,0.011
7429,-0.2297,-1.0145,8.8765,-0.2679,-0.2812,-2.5635,-0.0462,0,0,-179,22.3761292,120.159668,0.09,20,1.7,0,0,100,100,0.000027,0,0,0,0,3,0.011
7451,-0.5072,-1.0049,8.7951,-0.2883,-0.3427,-1.709,-0.0448,0,0,-179,22.3761292,120.159668,0.09,20,1.7,0,0,100,100,0.000027,0,0,0,0,3,0.011
7483,-0.6125,-0.8805,8.7186,-0.3158,-0.3885,-0.5493,-0.0418,0,0,-179,22.3761292,120.159668,0.09,20,1.7,0,0,100,100,0.000027,0,0,0,0,3,0.011
7504,-0.8087,-0.8087,8.6229,-0.3577,-0.4242,1.2817,-0.0364,0,0,-179,22.3761292,120.159668,0.09,20,1.7,0,0,100,100,0.000027,0,0,0,0,3,0.011
7536,-0.9618,-0.8565,8.7664,-0.4091,-0.4609,1.1597,-0.0316,0,0,-179,22.3761292,120.159668,0.09,20,1.7,0,0,100,100,0.000027,0,0,0,0,3,0.011
7558,-1.0049,-0.9379,8.9482,-0.4597,-0.5015,0.3662,-0.0283,0,0,-179,22.3761292,120.159668,0.09,20,1.7,0,0,100,100,0.000027,0,0,0,0,3,0.011
7590,-1.1389,-0.8135,9.1205,-0.5174,-0.528,1.709,-0.0234,0,0,-179,22.3761292,120.159668,0.09,20,1.7,0,0,100,100,0.000027,0,0,0,0,3,0.011
7620,-1.3446,-0.7656,9.288,-0.5878,-0.5482,-0.1831,-0.0217,0,0,-179,22.3761292,120.159668,0.09,20,1.7,0,0,100,100,0.000027,0,0,0,0,3,0.011
7641,-1.1245,-0.7321,9.5129,-0.6334,-0.5638,-3.2959,-0.0247,0,0,-179,22.3761292,120.159668,0.09,20,1.7,0,0,100,100,0.000027,0,0,0,0,3,0.011
7673,-0.7943,-0.5838,9.8335,-0.6471,-0.5655,-2.6855,-0.0266,0,0,-179,22.3761292,120.159668,0.09,20,1.7,0,0,100,100,0.000027,0,0,0,0,3,0.011
7695,-0.6269,-0.5694,10.1732,-0.6453,-0.5659,-1.5259,-0.0266,0,0,-179,22.3761292,120.159668,0.09,20,1.7,0,0,100,100,0.000027,0,0,0,0,3,0.011
7727,-0.823,-0.445,10.446,-0.6604,-0.5556,-2.3193,-0.0278,0,0,-179,22.3761292,120.159668,0.09,20,1.7,0,0,100,100,0.000027,0,0,0,0,3,0.011
7749,-0.5838,-0.3685,10.6518,-0.6539,-0.5397,-1.77,-0.0281,0,0,-179,22.3761292,120.159668,0.09,20,1.7,0,0,100,100,0.000027,0,0,0,0,3,0.011
7781,-0.4929,-0.5312,10.7762,-0.6402,-0.539,4.6387,-0.0188,0,0,-179,22.3761292,120.159668,0.09,20,1.7,0,0,100,100,0.000027,0,0,0,0,3,0.011
7802,-0.4977,-0.5312,10.7475,-0.6281,-0.5383,7.5684,-0.006,0,0,-179,22.3761292,120.159668,0.09,20,1.7,0,0,100,100,0.000027,0,0,0,0,3,0.011
7842,-0.4833,-0.1244,10.714,-0.6158,-0.5031,5.7373,0.0031,0,0,-179,22.3761272,120.159668,0.1,19,1.6,0,0,100,100,0.000027,0,0,0,0,3,0.011
7864,-0.2345,-0.1244,10.7762,-0.5834,-0.4709,-1.1597,0.0011,0,0,-179,22.3761272,120.159668,0.1,19,1.6,0,0,100,100,0.000027,0,0,0,0,3,0.011
7896,0.2297,0.1292,10.647,-0.5143,-0.4199,-4.7607,-0.0061,0,0,-179,22.3761272,120.159668,0.1,19,1.6,0,0,100,100,0.000027,0,0,0,0,3,0.011
7918,0.3924,0.1866,10.5465,-0.4372,-0.3684,-0.5493,-0.0064,0,0,-179,22.3761272,120.159668,0.1,19,1.6,0,0,100,100,0.000027,0,0,0,0,3,0.011
7950,-0.1818,0.1771,9.7952,-0.4155,-0.322,5.3711,0.0021,0,0,-179,22.3761272,120.159668,0.1,19,1.6,0,0,100,100,0.000027,0,0,0,0,3,0.011
7971,-0.7226,0.1627,9.1109,-0.4416,-0.2808,-0.1831,0.0017,0,0,-179,22.3761272,120.159668,0.1,19,1.6,0,0,100,100,0.000027,0,0,0,0,3,0.011
7993,-0.1101,0.3732,9.1396,-0.4134,-0.2252,-9.2773,-0.0122,0,0,-179,22.3761272,120.159668,0.1,19,1.6,0,0,100,100,0.000027,0,0,0,0,3,0.011
8025,0.2584,0.6508,9.0344,-0.3563,-0.1507,-10.2539,-0.0264,0,0,-179,22.3761272,120.159668,0.1,19,1.6,0,0,100,100,0.000027,0,0,0,0,3,0.011
8055,0.1962,0.5072,8.977,-0.3094,-0.0948,-10.0708,-0.0391,0,0,-179,22.3761272,120.159668,0.11,19,1.6,0,0,100,100,0.000027,0,0,0,0,3,0.011
8076,0.1244,0.4067,8.6803,-0.2725,-0.0522,-12.9395,-0.055,0,0,-179,22.3761272,120.159668,0.11,19,1.6,0,0,100,100,0.000027,0,0,0,0,3,0.011
8108,0.4977,0.3302,8.8573,-0.207,0,-9.7046,-0.0647,0,0,-179,22.3761272,120.159668,0.11,19,1.6,0,0,100,100,0.000027,0,0,0,0,3,0.011
8130,0.1005,0.1771,8.7951,-0.1809,0,-4.1504,-0.0654,0,0,-179,22.3761272,120.159668,0.11,19,1.6,0,0,100,100,0.000027,0,0,0,0,3,0.011
8151,-0.1723,-0.0144,8.7138,-0.1802,0,-3.418,-0.0649,0,0,-179,22.3761272,120.159668,0.11,19,1.6,0,0,100,100,0.000027,0,0,0,0,3,0.011
8183,-0.1771,0.1531,9.0679,-0.1799,0,-1.8921,-0.0622,0,0,-179,22.3761272,120.159668,0.11,19,1.6,0,0,100,100,0.000027,0,0,0,0,3,0.011
8205,-0.5216,0.2249,8.9961,-0.2089,0,0.7324,-0.0558,0,0,-179,22.3761272,120.159668,0.11,19,1.6,0,0,100,100,0.000027,0,0,0,0,3,0.011
8227,-0.5503,0.1101,9.0918,-0.2379,0,-0.5493,-0.0519,0,0,-179,22.3761272,120.159668,0.11,19,1.6,0,0,100,100,0.000027,0,0,0,0,3,0.011
8267,-0.5024,0.1196,9.3502,-0.2604,0,0.2441,-0.0471,0,0,-179,22.3761272,120.159668,0.12,20,1.7,0,0,100,100,0.000027,0,0,0,0,3,0.011
8288,-0.7321,0.0335,9.4363,-0.3005,0,5.4932,-0.0349,0,0,-179,22.3761272,120.159668,0.12,20,1.7,0,0,100,100,0.000027,0,0,0,0,3,0.011
8310,-1.0862,-0.0383,9.4411,-0.3673,0,3.9062,-0.0262,0,0,-179,22.3761272,120.159668,0.12,20,1.7,0,0,100,100,0.000027,0,0,0,0,3,0.011
8342,-0.5312,-0.0383,9.7617,-0.3812,0,3.3569,-0.019,0,0,-179,22.3761272,120.159668,0.12,20,1.7,0,0,100,100,0.000027,0,0,0,0,3,0.011
8364,-0.402,-0.1244,9.9914,-0.383,0,7.2021,-0.0067,0,0,-179,22.3761272,120.159668,0.12,20,1.7,0,0,100,100,0.000027,0,0,0,0,3,0.011
8396,-0.4307,-0.1436,10.2546,-0.387,0,6.0425,0.0029,0,0,-179,22.3761272,120.159668,0.12,20,1.7,0,0,100,100,0.000027,0,0,0,0,3,0.011
8417,-0.1818,-0.1962,10.3934,-0.3696,0,7.6904,0.014,0,0,-179,22.3761272,120.159668,0.12,20,1.7,0,0,100,100,0.000027,0,0,0,0,3,0.011
8449,0.134,0.1244,10.4125,-0.3268,0,18.1274,0.0397,0,0,-179,22.3761272,120.159668,0.12,20,1.7,0,0,100,100,0.000027,0,0,0,0,3,0.011
8479,-0.0144,-0.4211,10.7618,-0.3002,0,13.6108,0.0565,0,0,-179,22.3761272,120.159668,0.14,20,1.7,0,0,100,100,0.000027,0,0,0,0,3,0.011
8500,0.3876,-0.4881,10.9149,-0.2418,-0.0769,6.2256,0.061,0,0,-179,22.3761272,120.159668,0.14,20,1.7,0,0,100,100,0.000027,0,0,0,0,3,0.011
8532,0.8087,-0.1675,10.5417,-0.1525,-0.0846,10.498,0.0714,0,0,-179,22.3761272,120.159668,0.14,20,1.7,0,0,100,100,0.000027,0,0,0,0,3,0.011
8554,0.7369,-0.2058,10.2354,-0.0769,-0.0949,15.2588,0.0879,0,0,-179,22.3761272,120.159668,0.14,20,1.7,0,0,100,100,0.000027,0,0,0,0,3,0.011
8586,0.2058,-0.244,9.7761,-0.0529,-0.1076,15.0757,0.1028,0,0,-179,22.3761272,120.159668,0.14,20,1.7,0,0,100,100,0.000027,0,0,0,0,3,0.011
8607,0,-0.3732,9.4794,0,-0.1302,6.2866,0.1034,0,0,-179,22.3761272,120.159668,0.14,20,1.7,0,0,100,100,0.000027,0,0,0,0,3,0.011
8629,0.3445,-0.1866,9.2114,0,-0.135,-1.77,0.092,0,0,-179,22.3761272,120.159668,0.14,20,1.7,0,0,100,100,0.000027,0,0,0,0,3,0.011
8661,1.024,0.1292,9.422,0.0733,-0.1125,5.3711,0.0921,0,0,-179,22.3761272,120.159668,0.14,20,1.7,0,0,100,100,0.000027,0,0,0,0,3,0.011
8691,0.3972,-0.1388,9.4028,0.1009,-0.1147,9.5215,0.0984,0,0,-179,22.3761272,120.159668,0.17,20,1.7,0,0,100,100,0.000027,0,0,0,0,3,0.011
8712,0.0144,-0.1914,9.1875,0.0935,-0.1212,6.2866,0.0994,0,0,-179,22.3761272,120.159668,0.17,20,1.7,0,0,100,100,0.000027,0,0,0,0,3,0.011
8734,0.0813,-0.1818,9.1444,0.0925,-0.1264,5.188,0.0986,0,0,-179,22.3761272,120.159668,0.17,20,1.7,0,0,100,100,0.000027,0,0,0,0,3,0.011
8766,-0.0048,-0.2105,9.2258,0.0842,-0.1336,3.54,0.0955,0,0,-179,22.3761272,120.159668,0.17,20,1.7,0,0,100,100,0.000027,0,0,0,0,3,0.011
8788,-0.1675,-0.1866,9.1636,0.0628,-0.1381,1.0986,0.089,0,0,-179,22.3761272,120.159668,0.17,20,1.7,0,0,100,100,0.000027,0,0,0,0,3,0.011
8809,-0.1101,-0.067,9.2928,0,-0.132,0.2441,0.0818,0,0,-179,22.3761272,120.159668,0.17,20,1.7,0,0,100,100,0.000027,0,0,0,0,3,0.011
8841,-0.7369,-0.0718,9.1349,0,-0.1269,-2.5635,0.0711,0,0,-179,22.3761272,120.159668,0.17,20,1.7,0,0,100,100,0.000027,0,0,0,0,3,0.011
8863,-0.5503,-0.1053,9.0104,-0.0638,-0.1251,-5.5542,0.0568,0,0,-179,22.3761272,120.159668,0.17,20,1.7,0,0,100,100,0.000027,0,0,0,0,3,0.011
8903,-0.1101,-0.1292,9.6612,-0.0677,-0.1254,-5.9204,0.0432,0,0,-179,22.3761292,120.159668,0.2,20,1.7,0,0,100,100,0.000027,0,0,0,0,3,0.011
8925,-0.244,-0.0718,10.0728,-0.0827,-0.1209,-4.2725,0.0332,0,0,-179,22.3761292,120.159668,0.2,20,1.7,0,0,100,100,0.000027,0,0,0,0,3,0.011
8957,-0.8183,-0.2297,9.867,-0.1452,-0.1301,-11.5356,0.0132,0,0,-179,22.3761292,120.159668,0.2,20,1.7,0,0,100,100,0.000027,0,0,0,0,3,0.011
8978,-0.0144,-0.3445,9.8526,-0.1341,-0.1483,-14.1602,-0.0089,0,0,-179,22.3761292,120.159668,0.2,20,1.7,0,0,100,100,0.000027,0,0,0,0,3,0.011
9010,-0.3732,-0.3589,10.3455,-0.1544,-0.1662,-8.8501,-0.0213,0,0,-179,22.3761292,120.159668,0.2,20,1.7,0,0,100,100,0.000027,0,0,0,0,3,0.011
9032,-0.8039,-0.2919,10.5704,-0.2096,-0.1769,-11.1084,-0.0359,0,0,-179,22.3761292,120.159668,0.2,20,1.7,0,0,100,100,0.000027,0,0,0,0,3,0.011
9064,-0.1579,-0.1148,11.159,-0.2052,-0.1716,-15.0757,-0.0553,0,0,-179,22.3761292,120.159668,0.2,20,1.7,0,0,100,100,0.000027,0,0,0,0,3,0.011
9094,0.1436,-0.4402,10.6613,-0.1756,-0.1945,-15.686,-0.0738,0,0,-179,22.3761272,120.159668,0.23,20,1.7,0,0,100,100,0.000027,0,0,0,0,3,0.011
9115,-0.0239,-0.1627,10.6805,-0.1627,-0.1918,-16.4185,-0.0919,0,0,-179,22.3761272,120.159668,0.23,20,1.7,0,0,100,100,0.000027,0,0,0,0,3,0.011
9147,0.0718,-0.0622,10.5513,-0.1428,-0.1808,-16.8457,-0.1091,0,0,-179,22.3761272,120.159668,0.23,20,1.7,0,0,100,100,0.000027,0,0,0,0,3,0.011
9169,0.3158,0.0239,10.2115,-0.1038,-0.1634,-13.3057,-0.1196,0,0,-179,22.3761272,120.159668,0.23,20,1.7,0,0,100,100,0.000027,0,0,0,0,3,0.011
9201,0.3972,0.2632,10.1254,-0.0612,-0.1271,-4.1504,-0.1156,0,0,-179,22.3761272,120.159668,0.23,20,1.7,0,0,100,100,0.000027,0,0,0,0,3,0.011
9223,0.2488,0.2058,10.0345,0,-0.0988,-3.9062,-0.1115,0,0,-179,22.3761272,120.159668,0.23,20,1.7,0,0,100,100,0.000027,0,0,0,0,3,0.011
9255,0.6364,0.3445,9.532,0,-0.0611,-7.3853,-0.113,0,0,-179,22.3761272,120.159668,0.23,20,1.7,0,0,100,100,0.000027,0,0,0,0,3,0.011
9276,0.6508,0.3732,9.3023,0.0756,0,-7.6294,-0.1147,0,0,-179,22.3761272,120.159668,0.23,20,1.7,0,0,100,100,0.000027,0,0,0,0,3,0.011
9306,0.5312,0.2105,9.1492,0.1143,0,-7.8735,-0.1166,0,0,-179,22.3761272,120.159668,0.26,20,1.7,0,0,100,100,0.000027,0,0,0,0,3,0.011
9327,0.4689,0.0479,8.9674,0.1445,0,-7.8735,-0.1184,0,0,-179,22.3761272,120.159668,0.26,20,1.7,0,0,100,100,0.000027,0,0,0,0,3,0.011
9349,0.0048,-0.1244,8.5224,0.1326,0,-9.3994,-0.1223,0,0,-179,22.3761272,120.159668,0.26,20,1.7,0,0,100,100,0.000027,0,0,0,0,3,0.011
9381,0.1723,-0.0096,8.5846,0.136,0,-8.1177,-0.1239,0,0,-179,22.3761272,120.159668,0.26,20,1.7,0,0,100,100,0.000027,0,0,0,0,3,0.011
9403,0.2297,0.0335,8.9339,0.1439,0,-0.061,-0.1135,0,0,-179,22.3761272,120.159668,0.26,20,1.7,0,0,100,100,0.000027,0,0,0,0,3,0.011
9424,-0.1723,-0.1053,8.9435,0.1171,0,5.8594,-0.0952,0,0,-179,22.3761272,120.159668,0.26,20,1.7,0,0,100,100,0.000027,0,0,0,0,3,0.011
9456,-0.311,-0.1292,8.9435,0.0807,0,4.4556,-0.0805,0,0,-179,22.3761272,120.159668,0.26,20,1.7,0,0,100,100,0.000027,0,0,0,0,3,0.011
9478,-0.1388,-0.0431,8.91,0.062,0,7.5073,-0.0625,0,0,-179,22.3761272,120.159668,0.26,20,1.7,0,0,100,100,0.000027,0,0,0,0,3,0.011
9508,-1.5169,0.3972,9.9196,-0.0722,0,8.1177,-0.0451,0,0,-179,22.3761272,120.159668,0.29,20,1.7,0,0,100,100,0.000027,0,0,0,0,3,0.011
9529,-2.2251,0.7656,10.6422,-0.2552,0.074,0.061,-0.0412,0,0,-179,22.3761272,120.159668,0.29,20,1.7,0,0,100,100,0.000027,0,0,0,0,3,0.011
9551,-1.6509,0.8853,10.8145,-0.3738,0.1429,-3.0518,-0.0422,0,0,-179,22.3761272,120.159668,0.29,20,1.7,0,0,100,100,0.000027,0,0,0,0,3,0.011
9583,-0.6795,0.0335,10.5369,-0.3998,0.1336,7.7515,-0.0271,0,0,-179,22.3761272,120.159668,0.29,20,1.7,0,0,100,100,0.000027,0,0,0,0,3,0.011
9605,-0.5981,-0.4259,10.2067,-0.4167,0.0861,7.2632,-0.0141,0,0,-179,22.3761272,120.159668,0.29,20,1.7,0,0,100,100,0.000027,0,0,0,0,3,0.011
9637,0.1196,-0.5886,10.4556,-0.3711,0,8.3008,-0.0005,0,0,-179,22.3761272,120.159668,0.29,20,1.7,0,0,100,100,0.000027,0,0,0,0,3,0.011
9658,0.0622,-0.4259,10.9197,-0.3342,0,16.2964,0.0237,0,0,-179,22.3761272,120.159668,0.29,20,1.7,0,0,100,100,0.000027,0,0,0,0,3,0.011
9680,-0.4498,-0.2058,10.9819,-0.3441,0,23.1934,0.0561,0,0,-179,22.3761272,120.159668,0.29,20,1.7,0,0,100,100,0.000027,0,0,0,0,3,0.011
9720,-0.402,-0.5694,10.6087,-0.349,-0.0727,15.8691,0.0748,0,0,-179,22.3761272,120.159668,0.32,20,1.7,0,0,100,100,0.000027,0,0,0,0,3,0.011
9742,0.4881,-0.9188,10.6374,-0.2778,-0.1446,11.1694,0.0851,0,0,-179,22.3761272,120.159668,0.32,20,1.7,0,0,100,100,0.000027,0,0,0,0,3,0.011
9774,0.4929,-0.2488,10.4938,-0.2123,-0.1535,13.3057,0.0976,0,0,-179,22.3761272,120.159668,0.32,20,1.7,0,0,100,100,0.000027,0,0,0,0,3,0.011
9795,0.3828,0.1101,10.1685,-0.1617,-0.1311,13.1226,0.1087,0,0,-179,22.3761272,120.159668,0.32,20,1.7,0,0,100,100,0.000027,0,0,0,0,3,0.011
9827,1.0001,0.1148,9.3119,-0.063,-0.1102,15.0146,0.1218,0,0,-179,22.3761272,120.159668,0.32,20,1.7,0,0,100,100,0.000027,0,0,0,0,3,0.011
9849,1.158,-0.1723,9.0918,0,-0.1155,16.9678,0.1366,0,0,-179,22.3761272,120.159668,0.32,20,1.7,0,0,100,100,0.000027,0,0,0,0,3,0.011
9870,0.981,-0.1531,9.0057,0.1207,-0.1187,18.3105,0.1521,0,0,-179,22.3761272,120.159668,0.32,20,1.7,0,0,100,100,0.000027,0,0,0,0,3,0.011
9902,0.4737,0.0335,8.9004,0.1507,-0.1057,22.4609,0.1725,0,0,-179,22.3761272,120.159668,0.32,20,1.7,0,0,100,100,0.000027,0,0,0,0,3,0.011
9932,-0.2105,0,8.5032,0.12,-0.0967,23.2544,0.1924,0,0,-179,22.3761272,120.1596756,0.36,20,1.7,0,0,100,100,0.000027,0,0,0,0,3,0.011
9954,-0.4163,-0.134,8.4984,0.0744,-0.0999,20.813,0.2069,0,0,-179,22.3761272,120.1596756,0.36,20,1.7,0,0,100,100,0.000027,0,0,0,0,3,0.011
9975,-0.2728,-0.3254,8.5511,0,-0.1191,16.1133,0.2132,0,0,-179,22.3761272,120.1596756,0.36,20,1.7,0,0,100,100,0.000027,0,0,0,0,3,0.011
10007,0.0096,-0.3063,8.9339,0,-0.135,12.0239,0.2129,0,0,-179,22.3761272,120.1596756,0.36,20,1.7,0,0,100,100,0.000027,0,0,0,0,3,0.011
10029,-0.1388,-0.1962,9.0822,0,-0.1402,10.8643,0.2109,0,0,-179,22.3761272,120.1596756,0.36,20,1.7,0,0,100,100,0.000027,0,0,0,0,3,0.011
10051,-0.1771,-0.0622,9.1923,0,-0.1336,10.3149,0.2083,0,0,-179,22.3761272,120.1596756,0.36,20,1.7,0,0,100,100,0.000027,0,0,0,0,3,0.011
10082,-0.3063,0.0096,9.465,0,-0.1214,9.0942,0.2041,0,0,-179,22.3761272,120.1596756,0.36,20,1.7,0,0,100,100,0.000027,0,0,0,0,3,0.011
10104,-0.4689,0.0861,9.7234,-0.0559,-0.1037,7.9956,0.1986,0,0,-179,22.3761272,120.1596756,0.36,20,1.7,0,0,100,100,0.000027,0,0,0,0,3,0.011
10134,-0.4785,0.1818,10.3407,-0.0919,-0.0795,4.2114,0.188,0,0,-179,22.3761272,120.1596756,0.39,20,1.8,0,0,100,100,0.000027,0,0,0,0,3,0.011
10155,-0.3158,0.2201,10.3407,-0.1109,-0.054,1.8921,0.1748,0,0,-179,22.3761272,120.1596756,0.39,20,1.8,0,0,100,100,0.000027,0,0,0,0,3,0.011
10187,-0.311,0.1579,10.6135,-0.1279,0,-2.8687,0.1557,0,0,-179,22.3761272,120.1596756,0.39,20,1.8,0,0,100,100,0.000027,0,0,0,0,3,0.011
10209,-0.0335,0.1005,10.8001,-0.1199,0,-5.249,0.1347,0,0,-179,22.3761272,120.1596756,0.39,20,1.8,0,0,100,100,0.000027,0,0,0,0,3,0.011
10241,-0.2297,0.3924,11.0824,-0.1292,0,-4.0283,0.1173,0,0,-179,22.3761272,120.1596756,0.39,20,1.8,0,0,100,100,0.000027,0,0,0,0,3,0.011
10262,-0.3206,0.1531,10.8958,-0.1455,0,-11.7187,0.0899,0,0,-179,22.3761272,120.1596756,0.39,20,1.8,0,0,100,100,0.000027,0,0,0,0,3,0.011
10294,0.4498,0.0191,10.7235,-0.0949,0,-14.5874,0.0606,0,0,-179,22.3761272,120.1596756,0.39,20,1.8,0,0,100,100,0.000027,0,0,0,0,3,0.011
10316,0.1866,0.0431,10.4364,-0.071,0,-9.8267,0.0409,0,0,-179,22.3761272,120.1596756,0.39,20,1.8,0,0,100,100,0.000027,0,0,0,0,3,0.011
10346,-0.0335,0.3397,9.6373,-0.0678,0.0513,-2.5635,0.0336,0,0,-179,22.3761253,120.1596756,0.42,20,1.8,0,0,100,100,0.000027,0,0,0,0,3,0.011
10368,0.3063,0.1866,9.0822,0,0.0628,-0.061,0.0307,0,0,-179,22.3761253,120.1596756,0.42,20,1.8,0,0,100,100,0.000027,0,0,0,0,3,0.011
10389,0.9188,0.0239,9.1636,0,0.0595,3.1128,0.0327,0,0,-179,22.3761253,120.1596756,0.42,20,1.8,0,0,100,100,0.000027,0,0,0,0,3,0.011
10421,1.2106,0.0574,9.1827,0.1442,0.0593,4.9438,0.0372,0,0,-179,22.3761253,120.1596756,0.42,20,1.8,0,0,100,100,0.000027,0,0,0,0,3,0.011
10443,0.9235,0.1914,8.9578,0.2105,0.0705,5.6152,0.0424,0,0,-179,22.3761253,120.1596756,0.42,20,1.8,0,0,100,100,0.000027,0,0,0,0,3,0.011
10464,0.3732,0.1771,8.5319,0.2243,0.0796,2.1973,0.0421,0,0,-179,22.3761253,120.1596756,0.42,20,1.8,0,0,100,100,0.000027,0,0,0,0,3,0.011
10496,0.1483,0.3302,8.4314,0.2179,0.1009,3.1738,0.0432,0,0,-179,22.3761253,120.1596756,0.42,20,1.8,0,0,100,100,0.000027,0,0,0,0,3,0.011
10518,-0.4067,0.4115,8.6563,0.1648,0.1273,5.6763,0.0479,0,0,-179,22.3761253,120.1596756,0.42,20,1.8,0,0,100,100,0.000027,0,0,0,0,3,0.011
10547,-0.4689,0.3876,8.5989,0.1109,0.1494,3.2959,0.0488,0,0,-179,22.3761253,120.1596756,0.45,20,1.8,0,0,100,100,0.000027,0,0,0,0,3,0.011
10569,-0.0861,0.268,8.7186,0.0942,0.1595,3.54,0.0499,0,0,-179,22.3761253,120.1596756,0.45,20,1.8,0,0,100,100,0.000027,0,0,0,0,3,0.011
10591,-0.1005,0.3589,9.2162,0.0776,0.1764,3.479,0.0508,0,0,-179,22.3761253,120.1596756,0.45,20,1.8,0,0,100,100,0.000027,0,0,0,0,3,0.011
10623,-0.5551,0.6604,9.7713,0,0.2176,1.5259,0.0487,0,0,-179,22.3761253,120.1596756,0.45,20,1.8,0,0,100,100,0.000027,0,0,0,0,3,0.011
10645,-0.7417,0.6699,9.7809,0,0.256,0.8545,0.0459,0,0,-179,22.3761253,120.1596756,0.45,20,1.8,0,0,100,100,0.000027,0,0,0,0,3,0.011
10667,-0.7991,0.5742,9.9818,-0.1057,0.2831,-0.3052,0.0415,0,0,-179,22.3761253,120.1596756,0.45,20,1.8,0,0,100,100,0.000027,0,0,0,0,3,0.011
10698,-0.5503,0.3254,10.3981,-0.1435,0.2867,0.9155,0.0393,0,0,-179,22.3761253,120.1596756,0.45,20,1.8,0,0,100,100,0.000027,0,0,0,0,3,0.011
10720,-0.4498,0.2105,10.4077,-0.1695,0.2802,3.8452,0.0417,0,0,-179,22.3761253,120.1596756,0.45,20,1.8,0,0,100,100,0.000027,0,0,0,0,3,0.011
10750,0.1101,-0.1675,10.9963,-0.1457,0.2421,5.127,0.0458,0,0,-179,22.3761234,120.1596756,0.49,20,1.8,0,0,100,100,0.000027,0,0,0,0,3,0.011
10772,0.4211,-0.2967,11.5418,-0.0976,0.1963,7.6294,0.0532,0,0,-179,22.3761234,120.1596756,0.49,20,1.8,0,0,100,100,0.000027,0,0,0,0,3,0.011
10793,-0.1196,-0.0766,11.7715,-0.0994,0.1732,13.3057,0.0684,0,0,-179,22.3761234,120.1596756,0.49,20,1.8,0,0,100,100,0.000027,0,0,0,0,3,0.011
10825,-0.1914,-0.0813,11.0346,-0.1072,0.1515,1.8311,0.0653,0,0,-179,22.3761234,120.1596756,0.49,20,1.8,0,0,100,100,0.000027,0,0,0,0,3,0.011
10847,1.0432,-0.6412,10.7092,0,0.0841,-4.3945,0.0532,0,0,-179,22.3761234,120.1596756,0.49,20,1.8,0,0,100,100,0.000027,0,0,0,0,3,0.011
10868,1.1293,-0.335,10.7379,0.0873,0,0.7324,0.0498,0,0,-179,22.3761234,120.1596756,0.49,20,1.8,0,0,100,100,0.000027,0,0,0,0,3,0.011
10900,0.3445,0.4977,10.6565,0.1092,0.0867,11.2915,0.0623,0,0,-179,22.3761234,120.1596756,0.49,20,1.8,0,0,100,100,0.000027,0,0,0,0,3,0.011
10922,0.0526,0.1148,9.532,0.1044,0.0891,10.498,0.0726,0,0,-179,22.3761234,120.1596756,0.49,20,1.8,0,0,100,100,0.000027,0,0,0,0,3,0.011
10952,1.0575,-0.3924,8.7042,0.1854,0,3.2349,0.0712,0,0,-179,22.3761234,120.1596756,0.53,19,1.8,0,0,100,100,0.000027,0,0,0,0,3,0.011
10973,1.3638,-0.2823,8.7855,0.2856,0,2.7466,0.0692,0,0,-179,22.3761234,120.1596756,0.53,19,1.8,0,0,100,100,0.000027,0,0,0,0,3,0.011
10995,0.7704,-0.1101,8.9291,0.3268,0,4.2725,0.0697,0,0,-179,22.3761234,120.1596756,0.53,19,1.8,0,0,100,100,0.000027,0,0,0,0,3,0.011
11027,-0.3302,0.2297,8.9243,0.2709,0,5.127,0.0714,0,0,-179,22.3761234,120.1596756,0.53,19,1.8,0,0,100,100,0.000027,0,0,0,0,3,0.011
11049,-0.3254,0.0239,8.7951,0.2202,0,4.6387,0.0722,0,0,-179,22.3761234,120.1596756,0.53,19,1.8,0,0,100,100,0.000027,0,0,0,0,3,0.011
11070,-0.4115,-0.2536,8.6085,0.1665,0,3.418,0.0711,0,0,-179,22.3761234,120.1596756,0.53,19,1.8,0,0,100,100,0.000027,0,0,0,0,3,0.011
11102,-0.1292,-0.7178,8.7712,0.1414,-0.0578,-3.9062,0.0593,0,0,-179,22.3761234,120.1596756,0.53,19,1.8,0,0,100,100,0.000027,0,0,0,0,3,0.011
11124,-0.0526,-0.5455,9.0727,0.1249,-0.0992,-4.1504,0.0481,0,0,-179,22.3761234,120.1596756,0.53,19,1.8,0,0,100,100,0.000027,0,0,0,0,3,0.011
11164,-0.4354,-0.1866,9.4698,0.0773,-0.1067,2.4414,0.0476,0,0,-179,22.3761215,120.1596756,0.57,19,1.8,0,0,100,100,0.000027,0,0,0,0,3,0.011
11185,-0.8518,-0.2967,9.6804,0,-0.1228,1.8921,0.0464,0,0,-179,22.3761215,120.1596756,0.57,19,1.8,0,0,100,100,0.000027,0,0,0,0,3,0.011
11207,-0.7178,-0.4785,9.6708,-0.0626,-0.153,-2.6855,0.0385,0,0,-179,22.3761215,120.1596756,0.57,19,1.8,0,0,100,100,0.000027,0,0,0,0,3,0.011
11239,-0.4307,-0.3541,10.111,-0.0938,-0.1701,-4.8828,0.0279,0,0,-179,22.3761215,120.1596756,0.57,19,1.8,0,0,100,100,0.000027,0,0,0,0,3,0.011
11261,-0.646,-0.2823,10.5273,-0.1408,-0.1797,-6.3477,0.0162,0,0,-179,22.3761215,120.1596756,0.57,19,1.8,0,0,100,100,0.000027,0,0,0,0,3,0.011
11293,-0.3158,-0.2632,10.7092,-0.1557,-0.1868,-8.9111,0.0016,0,0,-179,22.3761215,120.1596756,0.57,19,1.8,0,0,100,100,0.000027,0,0,0,0,3,0.011
11314,-0.067,-0.201,10.9102,-0.1481,-0.188,-4.6997,-0.0055,0,0,-179,22.3761215,120.1596756,0.57,19,1.8,0,0,100,100,0.000027,0,0,0,0,3,0.011
11346,-0.0909,-0.2058,11.3025,-0.1433,-0.1895,-8.0566,-0.017,0,0,-179,22.3761215,120.1596756,0.57,19,1.8,0,0,100,100,0.000027,0,0,0,0,3,0.011
11376,0.713,-0.2967,11.1494,-0.0705,-0.1986,-13.855,-0.0361,0,0,-179,22.3761215,120.1596756,0.61,19,1.8,0,0,100,100,0.000027,0,0,0,0,3,0.011
11398,0.4259,-0.1675,10.8288,0,-0.196,-11.8408,-0.0506,0,0,-179,22.3761215,120.1596756,0.61,19,1.8,0,0,100,100,0.000027,0,0,0,0,3,0.011
11430,0.4211,0.1196,10.2402,0,-0.1691,-9.8877,-0.061,0,0,-179,22.3761215,120.1596756,0.61,19,1.8,0,0,100,100,0.000027,0,0,0,0,3,0.011
11451,0.8853,0.0622,9.9436,0.0843,-0.1495,-7.8125,-0.0674,0,0,-179,22.3761215,120.1596756,0.61,19,1.8,0,0,100,100,0.000027,0,0,0,0,3,0.011
11473,1.0336,0.2345,9.6517,0.165,-0.1168,-3.6621,-0.0671,0,0,-179,22.3761215,120.1596756,0.61,19,1.8,0,0,100,100,0.000027,0,0,0,0,3,0.011
11505,1.0432,0.311,9.2736,0.2396,-0.0805,-2.6855,-0.0654,0,0,-179,22.3761215,120.1596756,0.61,19,1.8,0,0,100,100,0.000027,0,0,0,0,3,0.011
11527,1.1389,0.2632,8.977,0.3161,-0.0513,-2.7466,-0.0639,0,0,-179,22.3761215,120.1596756,0.61,19,1.8,0,0,100,100,0.000027,0,0,0,0,3,0.011
11548,0.9427,0.268,8.6133,0.3693,0,-0.061,-0.0586,0,0,-179,22.3761215,120.1596756,0.61,19,1.8,0,0,100,100,0.000027,0,0,0,0,3,0.011
11588,0.0287,0.311,8.4219,0.3404,0,3.2349,-0.0488,0,0,-179,22.3761196,120.1596756,0.65,19,1.8,0,0,100,100,0.000027,0,0,0,0,3,0.011
11610,-0.1771,0.0383,8.5271,0.2964,0,2.4414,-0.041,0,0,-179,22.3761196,120.1596756,0.65,19,1.8,0,0,100,100,0.000027,0,0,0,0,3,0.011
11632,-0.2584,-0.2153,8.6611,0.2492,0,0.7324,-0.0364,0,0,-179,22.3761196,120.1596756,0.65,19,1.8,0,0,100,100,0.000027,0,0,0,0,3,0.011
11664,0.0526,-0.1053,8.886,0.2325,0,0.9155,-0.032,0,0,-179,22.3761196,120.1596756,0.65,19,1.8,0,0,100,100,0.000027,0,0,0,0,3,0.011
11685,-0.1771,0.0957,9.0918,0.1977,0,4.5776,-0.0225,0,0,-179,22.3761196,120.1596756,0.65,19,1.8,0,0,100,100,0.000027,0,0,0,0,3,0.011
11707,-0.5838,0.311,9.4028,0.1313,0,6.2256,-0.0113,0,0,-179,22.3761196,120.1596756,0.65,19,1.8,0,0,100,100,0.000027,0,0,0,0,3,0.011
11739,-0.6747,0.3924,9.6947,0.0628,0,7.5684,0.0009,0,0,-179,22.3761196,120.1596756,0.65,19,1.8,0,0,100,100,0.000027,0,0,0,0,3,0.011
11761,-0.7848,0.4067,9.7378,0,0.0797,8.1177,0.0128,0,0,-179,22.3761196,120.1596756,0.65,19,1.8,0,0,100,100,0.000027,0,0,0,0,3,0.011
11790,-0.5646,0.1818,10.0967,-0.0565,0.0884,6.0425,0.0207,0,0,-179,22.3761196,120.1596756,0.68,19,1.8,0,0,100,100,0.000027,0,0,0,0,3,0.011
11812,-0.2105,0.0144,10.2689,-0.0696,0.0821,3.9673,0.0248,0,0,-179,22.3761196,120.1596756,0.68,19,1.8,0,0,100,100,0.000027,0,0,0,0,3,0.011
11834,0.2488,0.1005,10.7235,0,0.0837,4.0283,0.0287,0,0,-179,22.3761196,120.1596756,0.68,19,1.8,0,0,100,100,0.000027,0,0,0,0,3,0.011
11865,-0.2153,0.4881,11.4078,-0.0572,0.118,7.2632,0.037,0,0,-179,22.3761196,120.1596756,0.68,19,1.8,0,0,100,100,0.000027,0,0,0,0,3,0.011
11887,-0.2728,0.3541,10.8145,-0.0755,0.1381,-1.5869,0.0315,0,0,-179,22.3761196,120.1596756,0.68,19,1.8,0,0,100,100,0.000027,0,0,0,0,3,0.011
11919,0.9905,-0.7034,10.8479,0,0.0666,-8.3008,0.0165,0,0,-179,22.3761196,120.1596756,0.68,19,1.8,0,0,100,100,0.000027,0,0,0,0,3,0.011
11941,0.847,-0.2249,11.1829,0.0858,0,-3.9062,0.0093,0,0,-179,22.3761196,120.1596756,0.68,19,1.8,0,0,100,100,0.000027,0,0,0,0,3,0.011
11962,0.2919,0.4785,11.3121,0.1033,0.0789,0.8545,0.0098,0,0,-179,22.3761196,120.1596756,0.68,19,1.8,0,0,100,100,0.000027,0,0,0,0,3,0.011
12002,0.4067,-0.2967,9.6852,0.1291,0,5.249,0.0168,0,0,-179,22.3761177,120.1596756,0.71,19,1.8,0,0,100,100,0.000027,0,0,0,0,3,0.011
12024,0.6843,-0.5742,9.1492,0.1763,0,3.418,0.0204,0,0,-179,22.3761177,120.1596756,0.71,19,1.8,0,0,100,100,0.000027,0,0,0,0,3,0.011
12045,1.1006,-0.4737,8.8382,0.2549,0,2.1362,0.0218,0,0,-179,22.3761177,120.1596756,0.71,19,1.8,0,0,100,100,0.000027,0,0,0,0,3,0.011
12078,0.5742,-0.1388,8.8478,0.282,-0.0535,6.5918,0.0298,0,0,-179,22.3761177,120.1596756,0.71,19,1.8,0,0,100,100,0.000027,0,0,0,0,3,0.011
12099,-0.0287,-0.1053,8.7521,0.2556,-0.0579,6.2256,0.0365,0,0,-179,22.3761177,120.1596756,0.71,19,1.8,0,0,100,100,0.000027,0,0,0,0,3,0.011
12131,-0.2967,-0.2297,8.6611,0.2087,-0.0725,2.2583,0.0367,0,0,-179,22.3761177,120.1596756,0.71,19,1.8,0,0,100,100,0.000027,0,0,0,0,3,0.011
12153,-0.1531,-0.3924,8.7712,0.1779,-0.0997,-0.2441,0.0332,0,0,-179,22.3761177,120.1596756,0.71,19,1.8,0,0,100,100,0.000027,0,0,0,0,3,0.011
12174,0.0574,-0.4259,8.9147,0.1677,-0.1274,-0.4883,0.0297,0,0,-179,22.3761177,120.1596756,0.71,19,1.8,0,0,100,100,0.000027,0,0,0,0,3,0.011
12214,-0.3206,-0.2632,9.2928,0.1262,-0.139,0.2441,0.0275,0,0,-179,22.3761177,120.1596756,0.73,20,1.8,0,0,100,100,0.000027,0,0,0,0,3,0.011
12236,-0.3876,-0.2297,9.355,0.0825,-0.1467,1.0986,0.0268,0,0,-179,22.3761177,120.1596756,0.73,20,1.8,0,0,100,100,0.000027,0,0,0,0,3,0.011
12258,-0.5551,-0.1579,9.4459,0,-0.1476,2.0752,0.0276,0,0,-179,22.3761177,120.1596756,0.73,20,1.8,0,0,100,100,0.000027,0,0,0,0,3,0.011
12289,-0.4354,-0.067,9.733,0,-0.1408,-1.2207,0.0235,0,0,-179,22.3761177,120.1596756,0.73,20,1.8,0,0,100,100,0.000027,0,0,0,0,3,0.011
12311,-0.0909,-0.0574,10.3886,0,-0.1337,-3.7231,0.0159,0,0,-179,22.3761177,120.1596756,0.73,20,1.8,0,0,100,100,0.000027,0,0,0,0,3,0.011
12343,-0.2871,0.1771,10.7905,0,-0.1073,-4.7607,0.0075,0,0,-179,22.3761177,120.1596756,0.73,20,1.8,0,0,100,100,0.000027,0,0,0,0,3,0.011
12365,-0.2249,0.1196,10.781,-0.0564,-0.088,-7.5684,-0.0043,0,0,-179,22.3761177,120.1596756,0.73,20,1.8,0,0,100,100,0.000027,0,0,0,0,3,0.011
12397,-0.1388,0.4689,11.1111,-0.0634,0,-5.9204,-0.0128,0,0,-179,22.3761177,120.1596756,0.73,20,1.8,0,0,100,100,0.000027,0,0,0,0,3,0.011
12426,0.3015,-0.4498,10.7427,0,-0.0754,-19.165,-0.0401,0,0,-179,22.3761158,120.1596756,0.76,20,1.8,0,0,100,100,0.000027,0,0,0,0,3,0.011
12448,0.7178,-0.3637,10.9341,0,-0.0999,-19.7144,-0.0659,0,0,-179,22.3761158,120.1596756,0.76,20,1.8,0,0,100,100,0.000027,0,0,0,0,3,0.011
12480,0.201,0.2297,11.0298,0,-0.0719,-10.9863,-0.0766,0,0,-179,22.3761158,120.1596756,0.76,20,1.8,0,0,100,100,0.000027,0,0,0,0,3,0.011
12502,0.2775,0.2775,10.4795,0.0655,0,-8.2397,-0.0823,0,0,-179,22.3761158,120.1596756,0.76,20,1.8,0,0,100,100,0.000027,0,0,0,0,3,0.011
